ax,ay,az,pitch_rad,px,py,pz,roll_rad,time_s,vx,vy,vz,yaw_rad
0.12,0.35,-0.04,0.011072278155061207,0.0,0.0,120.0,0.03567492524966318,0.0,18.0,1.5,0.2,0.08314123188844123
0.12494952517579924,0.3499873563261257,-0.03690012412767557,0.010957051067788907,0.90015,0.0754375,120.00995,0.03567363759387119,0.05,18.006,1.5175,0.198,0.0840787768537481
0.12989770142245088,0.34994942621800285,-0.03380099298561917,0.010850334009258595,1.8006061869064698,0.15174998419540767,120.01980387484484,0.03566977471881772,0.1,18.01224747625879,1.5349993678163063,0.19615499379361623,0.0850143519377782
0.1348439298875742,0.34988621241606516,-0.03070335112518096,0.010752118906023268,2.7013809328461877,0.2289373893689955,120.0295693732933,0.03566333690146417,0.15,18.018742361329913,1.5524968391272065,0.19446494414433527,0.08594785043008092
0.13978761186840716,0.3497977194874824,-0.027607942739918352,0.010662394911710704,3.602486605825043,0.3069995890908759,120.03925424131161,0.03565432460339212,0.2,18.025484557824292,1.5699911497480097,0.19292977658807622,0.08687916618076916
0.14472814888425015,0.34968395382583006,-0.0245155114868071,0.01058114841624506,4.503935568231093,0.3859363937276357,120.04886622021259,0.035642738470772345,0.25,18.032473938417713,1.5874810357223839,0.1915493794510803,0.08780819362769972
0.14966494274888323,0.3495449236506279,-0.02142680030758126,0.01050836305636894,5.405740175338084,0.46574755045603716,120.05841304479578,0.03562857933432132,0.3,18.039710345861927,1.6049652334136755,0.19032360387673994,0.08873482782332738
0.15459739564294833,0.3493806390067454,-0.018342551250245052,0.010444019727454878,6.307912773809616,0.5464327432812843,120.06790244148924,0.035611848209245324,0.35,18.04719359299937,1.622442479596207,0.18925226386136088,0.08965896446121667
0.15952491018628773,0.34919111176367673,-0.015263505290799374,0.010388096596593979,7.210465700204139,0.6279915930598531,120.07734212649324,0.035592546295172174,0.4,18.054923462781517,1.6399115115465441,0.18833513629884863,0.0905804999021963
0.16444688951022968,0.34897635561468265,-0.012190402155225856,0.010340569116948835,8.113411279480948,0.7104236575268849,120.08673980392656,0.035570674976070464,0.45,18.062899708290832,1.657371067134728,0.18757196103430865,0.09149933120014135
0.16936273732981297,0.34873638607580165,-0.009123980141771317,0.010301410043356562,9.016761823507379,0.7937284313281395,120.09610316397558,0.0355462358201565,0.5,18.071122052766345,1.674819884915462,0.18696244092654735,0.09241535612736869
0.17427185801594114,0.34847122048472845,-0.006064975943575079,0.010270589449167122,9.920529629567358,0.8779053460565074,120.10543988104673,0.0355192305797887,0.55,18.079590189632835,1.6922567042192522,0.18650624191945878,0.0933284731996314
0.17917365666745802,0.3481808779995616,-0.0030141244716820614,0.010248074744301098,10.82472697887152,0.9629537702930759,120.11475761192277,0.035489661191349685,0.6,18.088303782533632,1.7096802652434886,0.18620299312228003,0.09423858170069878
0.18406753918313568,0.3478653795974195,2.7841321516099138e-05,0.01023383069451021,11.729366135069036,1.0488730096527497,120.1240639939233,0.03545752977511593,0.65,18.097262465367006,1.7270893091434667,0.18605228689869593,0.0951455817065083
0.18895291233356618,0.34752474807292427,0.003060190618369353,0.010227819441823086,12.634459342761366,1.1356623068344198,120.13336664306989,0.035422838635115,0.7,18.106465842326163,1.7444825781233377,0.18605367896477173,0.0960493741088771
0.19382918383294828,0.3471590080365555,0.00608219491154461,0.010230000526157851,13.540018826018091,1.2233208416756778,120.14267315225639,0.035385590258970395,0.75,18.11591348794284,1.7618588155269839,0.1862066884956902,0.09694986063876013
0.1986957624107606,0.3467681859128718,0.009093128179046207,0.010240330908082441,14.446056786895024,1.3118477312120727,120.15199108942481,0.03534578731773406,0.8,18.125604947134487,1.7792167659288116,0.18651079824126743,0.09784694388904353
0.20355205788331232,0.34635230993860144,0.012092267058639097,0.010258764992702632,15.352585403954762,1.4012420297409043,120.1613279957471,0.03530343266570637,0.85,18.135539735255026,1.7965551752244553,0.18696545465021974,0.09874052733686124
0.20839748122516324,0.34591141016060273,0.015078891021633227,0.010285254654657119,16.259616830789867,1.4915027288895504,120.17069138381343,0.035258529340243885,0.9,18.145717338149193,1.8138727907213854,0.1875700680031517,0.09963051536542432
0.21323144464040378,0.34544551843369276,0.018052282545987036,0.010319749264198213,17.16716319454886,1.5826287576883205,120.18008873582737,0.03521108056155463,0.95,18.156137212210453,1.8311683612294156,0.18832401255423337,0.10051681328535211
0.21805336163378713,0.34495466841834627,0.0210117272886887,0.010362195714336029,18.075236594465185,1.6746189826478333,120.18952750180826,0.03516108973248102,1.0,18.166798784442474,1.8484406371511002,0.18922662668153273,0.10139932735549538
0.22286264708170433,0.3444388955782632,0.02395651425737364,0.010412538449023371,18.98384910038935,1.7674722078409113,120.19901509780145,0.035108560438270424,1.05,18.177701452524165,1.8656883705720175,0.19027721304596718,0.10227796480324193
0.22765871730299406,0.343898237177807,0.02688593598113697,0.010470719492357896,19.89301275132441,1.861187174988985,120.20855890409658,0.03505349644633337,1.1,18.18884458487825,1.8829103153509308,0.19147503875883587,0.10315263384429547
0.23244099012957825,0.3433327322793118,0.029799288680499934,0.010536678478777475,20.80273955396495,1.9557625635530038,120.21816626345449,0.03499590170598935,1.15,18.2002275207434,1.9001052272098211,0.1928193355578927,0.1040232437019195
0.23720888497691545,0.34274242174026065,0.03269587243648967,0.01061035268422415,21.71304148123978,2.051196990828844,120.22784447934323,0.034935780348200385,1.2,18.21184957024988,1.9172718638237867,0.1943092999919177,0.10488970462563785
0.2419618229142627,0.34212734821033314,0.035574991358791254,0.010691677058251475,22.623930470858497,2.1474890120472088,120.23760081418338,0.03487313668529209,1.25,18.223710014498725,1.9344089849107997,0.19594409361374218,0.10575192790938479
0.24669922673473843,0.34148755612832427,0.03843595375293211,0.010780584257049546,23.535418423862076,2.2446371204780116,120.24744248760327,0.034807975210662534,1.3,18.235808105644438,1.9515153523213165,0.19772284318168173,0.10660982590909734
0.25142052102517654,0.3408230917189336,0.04127807228645811,0.010877004677361484,24.447517203177718,2.3426397475392378,120.25737667470455,0.034740300598478706,1.35,18.248143066981175,1.9685897301277326,0.19964464086932834,0.1074633120597436
0.2561251322357648,0.3401340029894257,0.04410066415406213,0.010980866491264743,25.360238632178056,2.441495262910273,120.26741050433837,0.034670117703360696,1.4,18.260714093032433,1.9856308847136792,0.20170854448365125,0.10831230089178104
0.2608124887494575,0.33942033972616154,0.04690305124162452,0.01109209568179009,26.273594493244975,2.541201974649694,120.27755105739274,0.034597431560053536,1.45,18.273520349644222,2.0026375848631504,0.20391357769135435,0.10915670804703928
0.2654820209511557,0.33868215349100145,0.049684560289126885,0.011210616079350779,27.187596526338123,2.641758129317509,120.28780536509136,0.03452224738308676,1.5,18.286560974081695,2.0196086018494586,0.20625873025343558,0.1099964502940228
0.2701331612966448,0.3379194976175797,0.05244452305239954,0.011336349398954022,28.102256427568395,2.743161912101846,120.2981804073044,0.03444457056642166,1.55,18.299835075129252,2.0365427095240087,0.20874295826789194,0.11083144554262864
0.27476534438128275,0.33713242720745157,0.05518227646366395,0.011469215278166542,29.01758584777648,2.8454114469500684,120.30868311087161,0.034364406683086275,1.6,18.313341733194083,2.0534386844048877,0.21136518442051191,0.11166161285827586
0.27937800700842985,0.33632099912611163,0.05789716279083155,0.011609131315805694,29.93359639111666,2.948504796704322,120.31932034793823,0.03428176148479807,1.65,18.327080000413147,2.0702953057652604,0.2141242982436951,0.11248687247544309
0.2839705882576117,0.3354852719988859,0.060588529795520714,0.011756013111327297,30.850299613646076,3.0524399632414925,120.3300989343039,0.03419664090157443,1.7,18.341048900763568,2.087111355721566,0.21701915638323668,0.11330714581061137
0.2885425295524069,0.3346253062066957,0.06325573088975397,0.011909774304881177,31.767707021919573,3.1572148876175694,120.34102562778531,0.03410905104133082,1.75,18.355247430176448,2.1038856193215105,0.2200485828730127,0.11412235547461008
0.29309327472805297,0.33374116388169556,0.06589812529129763,0.012070326618005106,32.68583007159034,3.262827450216403,120.35210712659257,0.03401899818946677,1.8,18.36967455665407,2.120616884631845,0.22321136941750042,0.11493242528436426
0.2976222700987595,0.33283290890278366,0.06851507817760649,0.012237579894927693,33.60468016601645,3.3692754709028474,120.36335006772006,0.03392648880843957,1.85,18.38432922039047,2.13730394282593,0.2265062756820653,0.11573728027404177
0.30212896452472277,0.33190060689098727,0.07110596083833712,0.0124114421444506,34.524268654873595,3.4765567091802727,120.37476102535189,0.03383152953732585,1.9,18.399210333895407,2.153945588271069,0.22993202959094564,0.11653684670559977
0.3066128094788324,0.3309443252047211,0.07367015082639228,0.01259181958238038,35.44460683277402,3.58466886435244,120.38634650928249,0.033734127191370866,1.95,18.414316782121645,2.170540618615618,0.23348732763286248,0.11733105207873015
0.31107325911306294,0.32996413293492116,0.07620703210746102,0.012778616674480027,36.36570593789195,3.693609575689727,120.39811296335266,0.033634288761525646,2.0,18.429647422595586,2.1870878348758542,0.23717083517418208,0.11811982514020411
0.3155097703245411,0.3289601009000524,0.07871599520801792,0.012971736179910426,37.287577150595624,3.8033764225996882,120.41006676390151,0.03353202141397195,2.05,18.44520108555124,2.2035860415226,0.24098118677955513,0.11890309589261644
0.31992180282128213,0.32793230164099263,0.08119643736174609,0.013171079195131684,38.210231592086096,3.9139669248019433,120.4222142182345,0.033427332489635087,2.1,18.460976574067466,2.2200340465676027,0.24491698653995603,0.11968079560253103
0.32430881918758586,0.3268808094157912,0.0836477626543489,0.013376545198234458,39.133680323042995,4.025378542507374,120.4345615631082,0.03332022950368461,2.15,18.47697266420853,2.2364306616496523,0.24897680840804334,0.12045285680802877
0.328670284949086,0.32580570019430394,0.08606938216671564,0.013588032093671338,40.057934342277406,4.1376086766016265,120.44711496323193,0.03321072014502281,2.2,18.49318810516791,2.252774702120442,0.2531591965407608,0.1212192133256603
0.3330056686374434,0.3247070516527045,0.08846071411640632,0.01380543625735839,40.98300458539199,4.250654668832891,120.45988050978667,0.03309881227576122,2.25,18.509621619415363,2.269064987130157,0.2574626656490966,0.12197980025680584
0.3373144418546767,0.32358494316787206,0.09082118399742234,0.014028652582117121,41.90890192344855,4.364513802003965,120.47286421896177,0.03298451393068489,2.3,18.526271902847235,2.285300339712792,0.2618857013549169,0.12273455399344535
0.34159607933712133,0.3224394558116566,0.09315022471822848,0.0142575745234271,42.835637161643234,4.479183300168564,120.48607203050952,0.03286783331670473,2.35,18.54313762493997,2.3014795868711855,0.26642676055478803,0.1234834122233422
0.34585005901901056,0.3212706723450212,0.09544727673799425,0.014492094145459777,43.7632210379894,4.594660328831887,120.49950980631816,0.03274877881229767,2.4,18.560217428906824,2.3176015596617683,0.27108427179069944,0.1242263139346443
0.35007586209566965,0.320078677212063,0.09771178820102056,0.014732102167364002,44.69166422200852,4.710941995155407,120.51318332900361,0.032627358966934895,2.45,18.577509931857776,2.3336650932790195,0.27585663562759916,0.12496319941990669
0.3542729730863161,0.3188635565339118,0.09994321506932069,0.014977488009774106,45.62097731342902,4.828025348165873,120.52709830052024,0.032503582500497966,2.5,18.59501372496256,2.3496690271396226,0.2807422250376502,0.1256940102795406
0.35844087989645823,0.31762539810250795,0.10214102125332267,0.015228139841511504,46.551170840893505,4.9459073789685215,120.54126034079096,0.03237745830268302,2.55,18.612727373616874,2.365612204966318,0.2857393857911162,0.12641868942469375
0.3625790738798843,0.31636429137425953,0.10430467874066207,0.015483944626451066,47.48225526067422,5.064585020964466,120.55567498635708,0.032248995432392964,2.6,18.630649417611696,2.381493474871444,0.2908464368537823,0.127137181079567
0.36668704990023565,0.3150803274635791,0.10643366772303475,0.015744788170523712,48.414240955397155,5.184055150072256,120.57034768904819,0.03211820311711772,2.65,18.648778371305692,2.3973116894401567,0.2960616707908154,0.12784943078317376
0.37076430639215474,0.31377359913630076,0.10852747672107801,0.016010555168827066,49.34713823277481,5.304314584953593,120.5852838146724,0.03198509075230254,2.7,18.667112723800702,2.413065705813336,0.30138335417696716,0.12855538539054778
0.3748103454220024,0.31244420080297763,0.11058560270725129,0.016281129252816134,50.28095732434784,5.42536008724318,120.60048864172714,0.03184966790070436,2.75,18.68565093912031,2.428754385770151,0.30680972801302103,0.12925499307340574
0.3788246727481357,0.311092228512061,0.11260755122668584,0.016556393037546538,51.215708384235626,5.547188361782691,120.61596736013117,0.031711944291736405,2.8,18.704391456391413,2.4443765958103,0.3123390081483836,0.12994820332027152
0.38280679788073996,0.30971777994296074,0.11459283651597543,0.016836228168942903,52.15140148789613,5.6697960568588455,120.63172506997762,0.03157192982080078,2.85,18.72333269002882,2.4599312072359028,0.3179693857097179,0.13063496693606963
0.3867562341412073,0.30832095439898816,0.11654098161987847,0.017120515371065608,53.08804663089492,5.793179764445569,120.64776678030876,0.03142963454860932,2.9,18.742473029922856,2.4754170962330506,0.32369902753551666,0.13131523604119424
0.39067249872105375,0.3069018528001811,0.11845151850590421,0.01740913449334935,54.02565372768374,5.917336020450221,120.66409740791255,0.03128506870049263,2.95,18.761810841629917,2.490833143953,0.32952607661651057,0.1319889640700625
0.3945551127403703,0.3054605776760129,0.12032398817675541,0.01770196455778743,54.964232610388635,6.042261304963871,120.68072177614151,0.03113824266569726,3.0,18.78134446656597,2.506178236593009,0.3354486525418058,0.1326561057691593
0.3984036013057975,0.3039972331579842,0.12215794078060027,0.017998883806036075,55.90379302760786,6.1679520425156165,120.69764461375382,0.030989166996671234,3.05,18.801072222202986,2.5214512654768098,0.3414648519506436,0.1333166171945823
0.40221749356801895,0.3025119249720999,0.12395293571914681,0.018299769746413536,56.84434464321964,6.294404602330904,120.71487055377733,0.030837852408337772,3.1,18.820992402268278,2.536651127134709,0.3475727489896736,0.1339704557090951
0.40599632277876607,0.3010047604312303,0.12570854175349502,0.01860449920076923,57.785897035200016,6.421615298593855,120.73240413239647,0.030684309777357376,3.15,18.84110327694668,2.551776723383314,0.35377039577563096,0.13461757997869805
0.4097396263473269,0.29947584842735786,0.1274243371077395,0.018912948351198538,58.72845969445083,6.549580390713559,120.75024978786243,0.03052855014137817,3.2,18.861403093085617,2.5668269614048755,0.36005582286330573,0.13525794996872445
0.41344694589655256,0.2979252994237098,0.12909990957029935,0.019224992786579492,59.67204202363804,6.678296083594336,120.76841185942698,0.0303705846982747,3.25,18.881890074402982,2.5818007538262435,0.3664270397186927,0.1358915269394725
0.4171178273183543,0.29635322544677706,0.13073485659294987,0.019540507548907987,60.616653336040564,6.807758527909928,120.78689458629987,0.030210424805375027,3.3,18.90256242169781,2.596697018797429,0.3728820351972077,0.1365182734413816
0.42075182082868434,0.29475974007822076,0.13232878538753287,0.01985936717940872,61.5623028544096,6.937963820381608,120.80570210663046,0.030048081978676356,3.35,18.923418313063728,2.611514680069768,0.3794187780268552,0.1371381533097626
0.42434848102199496,0.2931449584466655,0.13388131302032227,0.020181445764399553,62.50899970983882,7.068908004060194,120.82483845651355,0.029883567892048997,3.4,18.944455904105162,2.626252667073679,0.38603521729623186,0.13775113165909186
0.42790736692516673,0.2915089972193817,0.13539206650402183,0.020506616980887567,63.45675294064535,7.200587068611936,120.84430756901963,0.029716894376428948,3.45,18.96567332815626,2.6409099149960125,0.39272928294724796,0.13835717487687918
0.43142804205090257,0.2898519745938565,0.13686068288737382,0.020834754141875567,64.40557149126182,7.332996950608261,120.86411327325013,0.02954807341899891,3.5,18.98706869650252,2.6554853648569816,0.39949888627244906,0.1389562506171185
0.4349100744505784,0.28817401028925366,0.1382868093423561,0.02116573024135844,65.35546421113952,7.466133533819352,120.88425929341736,0.029377117162357937,3.55,19.008640098605063,2.6699779635866743,0.40634192041681777,0.1395483277933333
0.4383530367665459,0.28647522553776433,0.13967010324894752,0.02149941799898924,66.30643985366284,7.599992649511548,120.90474924794988,0.029204037903679623,3.6,19.03038560232759,2.684386664101137,0.4132562608839356,0.14013337657122518
0.4417565062838798,0.2847557430758478,0.14101023227744058,0.021835689904395512,67.25850707507519,7.734570076748527,120.92558664862314,0.02902884809385898,3.65,19.052303254165917,2.6987104253780254,0.42023976604638297,0.1407113683609371
0.4451200649815641,0.28301568713536396,0.14230687446828214,0.022174418261126972,68.21167443341633,7.869861542696273,120.9467748997158,0.02885156033664798,3.7,19.07439107948011,2.712948212531818,0.427290277660255,0.14128227580894123
0.4484432995831109,0.2812551834345976,0.1435597183094227,0.0225154752302161,69.16595038747157,8.005862722931782,120.9683172971919,0.02867218738777979,3.75,19.09664708272919,2.727098996888586,0.4344056213836691,0.1418460727895622
0.4517258016066062,0.2794743591691753,0.14476846281115557,0.022858732873334068,70.1213432957325,8.142569241755506,120.99021702790897,0.028490742154081813,3.8,19.119069247708346,2.741161756060316,0.44158360729914026,0.14240273439614612
0.4549671674141744,0.2776733430028755,0.14593281757842821,0.02320406319552466,71.07786141536994,8.279976672507484,121.01247716885244,0.02830723769257747,3.85,19.141655537788676,2.755135474018775,0.44882203043969804,0.1429522369318862
0.45816699826085944,0.27585226505833277,0.14705250288060828,0.023551338187499913,72.03551290121864,8.418080537887176,121.0351006863964,0.028121687209576886,3.9,19.164403896159385,2.769019141168919,0.45611867131861944,0.14349455790031554
0.46132490034291285,0.27401125690763656,0.1481272497186876,0.02390042986748125,72.99430580477443,8.556876310276945,121.05809043559094,0.027934104059756423,3.95,19.187312246072427,2.7828117544218354,0.46347129646264984,0.14402967599547833
0.46444048484548517,0.27215045156282475,0.1491567998899078,0.024251210322571094,73.95424807320349,8.696359412069171,121.08144915947622,0.027744501745227128,4.0,19.21037849108957,2.7965123172672173,0.47087765894858424,0.1445575710917893
0.46751336798971377,0.2702699834662741,0.15014090604979236,0.024603551749639952,74.91534754836402,8.836525215996986,121.10517948842352,0.027552893914592227,4.05,19.233600515331844,2.8101198398453584,0.47833549894307964,0.14507822423359318
0.4705431710792022,0.2683699884809866,0.15107933177156987,0.024957326495715217,75.87761196584061,8.977369045468585,121.12928393950324,0.027359294361993556,4.1,19.25697618373133,2.8236333390186723,0.4858425442455693,0.14559161762443446
0.47352952054588515,0.26645060388077335,0.15197185160297452,0.025312407097857884,76.84104895399103,9.11888617490512,121.15376491588023,0.027163717026147137,4.15,19.28050334228529,2.8370518384427217,0.49339651083414776,0.1460977346160483
0.4764720479952731,0.2645119683403369,0.15281825112040973,0.025668666322514588,77.80566603300598,9.261071830082107,121.17862470623645,0.02696617598936783,4.2,19.304179818312583,2.85037436863676,0.5009951034142965,0.14659655969708363
0.4793703902510717,0.2625542219252517,0.15361832698046265,0.026025977204332525,78.77147061398159,9.40392118847437,121.20386548422105,0.026766685476583143,4.25,19.328003420712346,2.863599967053777,0.508636015970317,0.14708807848156868
0.4822241893991704,0.26057750608184455,0.15437188696875617,0.026384213084425786,79.73846999800502,9.547429379604466,121.22948930792829,0.02656525985433631,4.3,19.3519719402249,2.8767276781500395,0.5163169323193402,0.14757227769713036
0.4850330928309945,0.25858196362697516,0.15507875004612784,0.02674324764808197,80.70667137525301,9.69159148539457,121.25549811940297,0.0263619136297786,4.35,19.376083149694857,2.8897565534541316,0.524035526667778,0.14804914517297751
0.48779675328621597,0.2565677387377181,0.15573874639212312,0.02710295496189867,81.67608182410379,9.83640254052181,121.28189374417393,0.026156661449651005,4.4,19.400334804336406,2.90268565163548,0.5317894641700843,0.14851866982765924
0.49051482889481807,0.25453497694094523,0.1563517174457946,0.02746320951034012,82.64670831026221,9.981857532777006,121.30867789081542,0.02594951809925519,4.45,19.42472464200072,2.915514038572366,0.5395764014896904,0.14898084165660835
0.4931869832185074,0.2524838251028122,0.1569175159437949,0.02782388623170471,83.61855768589837,10.1279514034268,121.33585215053671,0.02574049850141403,4.5,19.44925038344546,2.9282407874194134,0.5473939873619802,0.14943565171948095
0.4958128852914702,0.2504144314181469,0.15743600595575644,0.02818486055349474,84.59163668879965,10.27467904757915,121.36341799679974,0.025529617715421515,4.55,19.473909732606383,2.940864978674554,0.55523986315917,0.1498830921273021
0.49839220966046627,0.248326945399743,0.1579070629169477,0.02854600842718047,85.56595194153658,10.42203531455215,121.39137678496513,0.0253168909359823,4.6,19.498700376870957,2.9533857002454615,0.5631116634569577,0.15032315602942828
0.5009246364242567,0.24622151786755725,0.15833057365819955,0.02890720636235103,86.54150995064221,10.570015008246175,121.41972975196663,0.025102333492140767,4.65,19.52361998735398,2.9658020475154485,0.5710070166028052,0.1507558376003368
0.5034098512723602,0.24409830093781296,0.15870643643309348,0.029268331460245236,87.51831710580544,10.718612887519283,121.44847801601385,0.024885960846199824,4.7,19.548666219175196,2.9781131234088263,0.5789235452857151,0.1511811320262523
0.5058475455231338,0.24195744801200966,0.15903456094240567,0.02962926144665615,88.49637967907829,10.867823666565897,121.47762257632368,0.0246677885926294,4.75,19.573836711738814,2.990318038455717,0.5868588671073698,0.15159903549162015
0.5082374161611735,0.23979911376583998,0.1593148683558011,0.029989874704203605,89.47570382409714,11.017642015298698,121.50716431288024,0.024447832456964753,4.8,19.59912908901497,3.0024159108563175,0.5948105951544901,0.15200954516543722
0.5105791658740271,0.23762345413801436,0.1595472913307719,0.030350050303969534,90.45629557531808,11.16806255973372,121.53710398622341,0.024226108294694605,4.85,19.62454095982303,3.0144058665446094,0.6027763385722802,0.15241265918744934
0.5128725030882216,0.23543062631899445,0.1597317740288163,0.030709668036491576,91.43816084726657,11.319079882378624,121.56744223726619,0.024002632090139208,4.9,19.65006991811673,3.02628703925151,0.6107537031388188,0.15280837665422556
0.5151171420045938,0.23322078873963628,0.15986827212885346,0.03106860844211078,92.42130543380127,11.470688522624098,121.59817958714068,0.02377741995531839,4.95,19.675713543271144,3.03805857056746,0.6187402918402597,0.1531966976051184
0.5173128026329232,0.23099410105974372,0.1599567528378714,0.031426752840669966,93.40573500739232,11.622882977138394,121.62931643707284,0.023550488128809666,5.0,19.701469400371373,3.0497196100044417,0.6267337054467024,0.15357762300811972
0.519459210825864,0.22875072415653294,0.15999719489880534,0.03178398336055973,94.39145511841417,11.77565770026494,121.66085306828623,0.023321852974596432,5.05,19.727335040503018,3.061269315057429,0.6347315430885959,0.15395115474562174
0.5215560983121681,0.22649082011300942,0.15998958859564472,0.03214018296710952,95.37847119445286,11.929007104423007,121.69278964193428,0.02309153098090639,5.1,19.75330800104431,3.0727068512652553,0.6427314028335361,0.15431729560009172
0.5236032027292002,0.22421455220625713,0.15993393575576723,0.03249523549032197,96.36678853962798,12.082925560511411,121.7251261990617,0.02285953875904019,5.15,19.77938580595992,3.084031392270906,0.6507308822633183,0.15467604923967024
0.5256002676547376,0.22192208489564225,0.15983024974950003,0.03284902565194876,97.35641233392938,12.237407398315215,121.75786266059457,0.02262589304219044,5.2,19.805565966096378,3.095242119881219,0.6587275790511067,0.15502742020370108
0.5275470426380499,0.21961358381093068,0.1596785554869073,0.03320143909190726,98.34734763256877,12.392446906915396,121.79099882735932,0.022390610684251078,5.25,19.831845979479116,3.106338224126001,0.6667190915385817,0.15537141388820172
0.5294432832302602,0.21728921574032156,0.15947888941180607,0.0335523623940372,99.33959936534602,12.54803833510146,121.8245343801306,0.02215370865861724,5.3,19.85822333161102,3.1173189033165474,0.674703019312927,0.15570803653128343
0.5312887510139774,0.21494914861839695,0.15923129949301046,0.03390168311119748,100.33317233603061,12.704175891786962,121.858468879708,0.02191520405697571,5.35,19.884695495772533,3.1281833641035632,0.6826769637835173,0.15603729519852846
0.5330832136322013,0.2125935515139884,0.1589358452128076,0.03424928978970334,101.32807122175801,12.860853746427912,121.89280176702154,0.021675114088085923,5.4,19.911259933323233,3.138930821534483,0.6906385287581678,0.1563591977683335
0.5348264448164932,0.2102225946179621,0.1585925975526671,0.03459507199310485,102.32430057244122,13.018066029444029,121.92753236326597,0.021433456076551748,5.45,19.937914094004842,3.149560499110182,0.6985853210188082,0.15667375291722674
0.5365182244144122,0.20783644923092234,0.15820163897618836,0.034938920325307925,103.32186481019747,13.17580683264281,121.96265987006385,0.021190247461584003,5.5,19.964655416245666,3.1600716288410804,0.7065149508964416,0.1569809701051666
0.5381583384162106,0.2054352877508353,0.1577630634092889,0.035280726453039424,104.32076822879027,13.334070209646402,121.99818336965738,0.02094550579575386,5.55,19.991481327466385,3.1704634513026266,0.7144250328452509,0.15728085956083035
0.5397465789807869,0.20301928366057354,0.1572769762176391,0.03562038312765868,105.3210149930866,13.492850176321221,122.0341018251289,0.020699248743737207,5.6,20.018389244387194,3.1807352156901683,0.7223131860157154,0.15757343226689932
0.541282744460893,0.20058861151538152,0.15674349418134867,0.035957784206317574,106.32260913852969,13.652140711210304,122.07041408064997,0.02045149408105,5.65,20.045376573336235,3.190886179873197,0.7301770348265973,0.1578586999453488
0.5427666394275927,0.19814344693026437,0.15616274546691084,0.03629282467247235,107.32555457062708,13.811935755968358,122.10711886175902,0.020202259692774744,5.7,20.072440710559277,3.200915610448966,0.7380142095356648,0.15813667504274925
0.5441980746939681,0.1956839665672998,0.15553486959641086,0.03662540065575007,108.32985506445434,13.97222921579947,122.14421477566763,0.019951563572278192,5.75,20.099579042530657,3.2108227827954794,0.7458223468090103,0.15840737071558647
0.5455768673380708,0.19321034812287396,0.15486001741400654,0.03695540945117353,109.33551426417424,14.133014959897451,122.18170031159508,0.019699423819920278,5.8,20.126788946265354,3.2206069811238445,0.7535990902888308,0.15867080081560678
0.5469028407251162,0.1907227703148436,0.1541383510496887,0.03728274953774851,110.34253568257168,14.294286821888797,122.2195738411313,0.019445858641754493,5.85,20.154067789632258,3.230267498529988,0.7613420911595311,0.15892697987519452
0.5481758245289179,0.18822141286962327,0.15337004388033018,0.037607320596417367,111.3509227006042,14.45603860027819,122.25783361862808,0.01919088634821964,5.9,20.181412931668515,3.23980363704573,0.7690490087120155,0.15917592309278827
0.5493956547525576,0.18570645650920017,0.1525552804880329,0.03792902352738393,112.36067856696829,14.618264058896564,122.29647778161853,0.018934525352823178,5.95,20.20882172289496,3.2492147076892115,0.776717510906032,0.15941764631834163
0.5505621737482922,0.18317808293807733,0.15169425661578287,0.038247760466814267,113.37180639768148,14.78095692735166,122.33550435126445,0.01867679417081619,6.0,20.23629150563259,3.2585000305146714,0.7843452749304337,0.15965216603883503
0.5516752302366902,0.18063647483014542,0.1507871791204238,0.038563434802918586,114.3843091756803,14.944110901481066,122.37491123283174,0.018417711417860135,6.05,20.263819614320003,3.267658934661575,0.7919299877612228,0.15987949936384488
0.5527346793250014,0.17808181581548466,0.1498342659229611,0.0388759511914198,115.3981897504341,15.107719643807682,122.4146962161937,0.018157295808685334,6.1,20.291403375831838,3.2766907584030824,0.799469346717244,0.16009966401117479
0.5537403825247512,0.1755142904670976,0.14883574595620688,0.03918521557041435,116.41345083757484,15.271776783997606,122.45485697636197,0.017895566155741446,6.15,20.319040109798088,3.2855948491938567,0.8069610600133921,0.16031267829255544
0.5546922077685627,0.17293408428757376,0.14779185910978035,0.039491135174631334,117.4300950185429,15.436275919320382,122.49539107404509,0.017632541367839923,6.2,20.346727128924325,3.2943705637172114,0.8144028473112024,0.16051856109941826
0.5555900294262007,0.17034138369568716,0.14670285617247525,0.039793618549096146,118.44812474024883,15.6012106151116,122.53629595623454,0.017368240448788593,6.25,20.374461739312753,3.30301726793159,0.8217924402666914,0.16071733188874757
0.5564337283198395,0.16773637601292768,0.1455689987720092,0.040092575562205135,119.46754231475124,15.766574405237801,122.57756895681808,0.017102682496018443,6.3,20.402241240784065,3.3115343371163743,0.8291275830753152,0.16090901066901708
0.5572231917385478,0.1651192494499674,0.14439055931216896,0.04038791741821781,120.48834991895085,15.932360792563635,122.61920729722031,0.01683588669920275,6.35,20.43006292720006,3.3199211559170205,0.8364060330139157,0.16109361798621502
0.557958313451994,0.16249019309306187,0.14316782090736638,0.04067955666917369,121.51054959430053,16.0985632494213,122.66120808707015,0.01656787233886852,6.4,20.457924086786985,3.328177118389519,0.8436255609795241,0.1612711749099629
0.5586389937233662,0.1598493968903893,0.1419010773146219,0.04096740722624064,122.53414324653168,16.265175218082142,122.70356832489526,0.01629865878500058,6.45,20.485822002459585,3.336301628044172,0.8507839520248924,0.16144170301973224
0.5592651393215079,0.15719705163832653,0.14059063286299073,0.041251384370502214,123.55913264539682,16.432190111230465,122.74628489884314,0.01602826549563815,6.5,20.513753952145752,3.3442940978886915,0.8578790058906235,0.16160522439116384
0.559836663532267,0.15453334896766424,0.13923680238044914,0.04153140476319119,124.58551942442826,16.599601312439447,122.78935458742875,0.015756712015464223,6.55,20.541717209111827,3.352153950470608,0.8649085375337731,0.16176176158249359
0.5603534861690561,0.15185848132976174,0.1378399111182587,0.041807386455377106,125.61330508071326,16.767402176649185,122.83277406030842,0.01548401797438774,6.6,20.56970904228844,3.359880617918991,0.8718703776527955,0.16191133762108886
0.5608155335826244,0.1491726419826422,0.13640029467282616,0.042079248897115416,126.6424909746854,16.9355860306468,122.87653987907997,0.015210203086118661,6.65,20.597726716596892,3.367473541985479,0.8787623732087084,0.16205397599009966
0.5612227386700384,0.14647602497703016,0.13491829890507803,0.04234691294606621,127.67307832993222,17.104146173548553,122.92064849810875,0.014935287146736129,6.7,20.625767493276022,3.374932174084611,0.8855823879423498,0.16218970061522756
0.5615750408828709,0.14376882514233114,0.13339427985736915,0.04261030087559054,128.70506823301938,17.273075877284004,122.9650962653795,0.014659290033249728,6.75,20.653828630209524,3.3822559753334627,0.8923283028876037,0.16231853585161674
0.5618723862345987,0.14105123807255568,0.1318286036679452,0.04286933638233241,129.73846163333096,17.442368387082105,123.0098794233737,0.014382231702154044,6.8,20.68190738225367,3.389444416590579,0.8989980168804721,0.16244050647086977
0.5621147273072049,0.13832346011218738,0.1302216464829799,0.04312394459329475,130.77325934292645,17.612016921959224,123.05499410997231,0.014104132187976529,6.85,20.7100010015654,3.396496978494207,0.9055894470638693,0.1625556376481921
0.5623020232569884,0.13558568834199722,0.1285737943662075,0.04337405207241768,131.80946203641386,17.782014675209076,123.10043635938361,0.013825011601818885,6.9,20.73810673793076,3.4034131514998163,0.9121005293880183,0.16266395494966734
0.5624342398195782,0.13283812056480465,0.12688544320617298,0.0436195868266675,132.84707025083947,17.952354814894495,123.14620210309597,0.01354489012989203,6.95,20.76622183909361,3.4101924359169162,0.9185292191063287,0.16276548431966759
0.562511349314151,0.13008095529118646,0.12515699862112162,0.04386047831164493,133.88608438559393,18.123030484341044,123.1922871708553,0.01326378803204477,7.0,20.79434355108459,3.4168343419451563,0.9248734912666373,0.1628602520683999
0.5625333306468547,0.12731439172513426,0.12338887586155114,0.044096657436721046,134.9265047023348,18.294034802632414,123.2386872916669,0.012981725640286245,7.05,20.8224691185503,3.423338389709716,0.9311313411976934,0.16294828485959323
0.5625001693134334,0.12453862974966218,0.12158149971045001,0.04432805656970979,135.9683313249256,18.465360865107556,123.28539809482162,0.01269872335730236,7.1,20.850595785082643,3.4297041092959724,0.937300784990771,0.16302960969832672
0.5624118574010563,0.12175386991236546,0.1197353043812451,0.04455460954108547,137.01156423939136,18.63700174385954,123.33241511094579,0.012414801654966237,7.15,20.878720793548315,3.4359310407834553,0.9433798599762935,0.16310425391900307
0.5622683935893508,0.11896031341093108,0.11785073341348401,0.04477625164775408,138.05620329389052,18.808950488236103,123.37973377307509,0.012129981072842862,7.2,20.906841386418368,3.4420187342790736,0.9493666251953558,0.1631722451734681
0.5620697831506359,0.11615816207860097,0.11592823956627718,0.044992919656387236,139.10224819870342,18.98120012534182,123.42734941775161,0.011844282216687945,7.25,20.934954806097835,3.4479667499496203,0.95525916186603,0.16323361141927897
0.5618160379493611,0.11334761836959,0.11396828470952414,0.04520455180632735,140.14969852623724,19.1537436605419,123.47525728614437,0.011557725756941285,7.3,20.963058295255365,3.4537746580535504,0.9610555738443438,0.1632883809081233
0.5615071764407454,0.1105288853444584,0.11197133971295198,0.045411087812072995,141.19855371104745,19.32657407796754,123.52345252519248,0.011270332427214563,7.35,20.99114909715283,3.4594420389720297,0.96675398807982,0.16333658217439012
0.5611432236686226,0.10770216665544129,0.10993788433299087,0.045612468865353056,142.24881304987565,19.49968434102282,123.5719301887711,0.01098212302277388,7.4,21.019224455974868,3.4649684832392524,0.9723525550654677,0.16337824402389534
0.5607242112624862,0.10486766653173421,0.107868407097515,0.04580863763679857,143.300475701704,19.673067392893103,123.6206852388798,0.010693118399016955,7.45,21.047281617158298,3.4703535915720245,0.9778494492821173,0.16341339552276227
0.5602501774337413,0.10202558976473808,0.10576340518847602,0.045999538277221065,144.35354068782598,19.846716157054868,123.66971254685278,0.010403339469945297,7.5,21.07531782772142,3.475596974898611,0.983242869636993,0.1634420659864594
0.5597211669711579,0.09917614169326294,0.10362338432245766,0.04618511641850595,145.40800689193384,20.020623537787007,123.71900689459112,0.010112807206631363,7.55,21.103330336593107,3.480698254386848,0.9885310398964169,0.16346428496899632
0.5591372312355317,0.09631952818869256,0.10144885862917949,0.046365319174129914,146.4638730602222,20.194782420683467,123.76856297581635,0.00982154263568087,7.6,21.131316394941663,3.485657061471511,0.9937122091125398,0.16348008225227872
0.5584984281535467,0.09345595564010996,0.09924035052798,0.04654009513931085,147.52113780150833,20.369185673167276,123.81837539734526,0.009529566837690339,7.65,21.15927325650344,3.4904730378809457,0.9987846520439987,0.16348948783562414
0.5578048222108467,0.09058563093938606,0.09699839060230761,0.04670939439079906,148.57979958736868,20.543826145005877,123.86843868038562,0.009236900945700066,7.7,21.187198177911117,3.4951458356629512,1.0037466695703976,0.16349253192543914
0.5570564844443127,0.08770876146623192,0.09472351747225072,0.04687316848631834,149.639856752292,20.7186966688277,123.91874726185239,0.008943566143642619,7.75,21.215088419021658,3.4996751172099207,1.008596589100513,0.1634892449250582
0.5562534924335479,0.08482555507321546,0.09241627766513669,0.04703137046366536,150.70130749384862,20.89379006064003,123.96929549570426,0.008649583664786934,7.8,21.242941243243873,3.5040605552832322,1.0133327649741257,0.16347965742474604
0.5553959302915717,0.08193622007074451,0.09007722548423155,0.04718395483947609,151.76414987287635,21.06909912034803,124.02007765430004,0.008354974790178278,7.85,21.27075391786555,3.508301833036893,1.0179535788573826,0.16346380019186313
0.5544838886547236,0.07904096521201603,0.08770692287557091,0.047330877607667556,152.82838181368248,21.244616632274965,124.07108792977476,0.008059760847073995,7.9,21.29852371438013,3.5123986440404305,1.0224574401315942,0.1634417041611956
0.5535174646717786,0.07613999967793414,0.08530593929295549,0.047472096237563155,153.89400110426232,21.420335365683503,124.12232043543493,0.007763963207375409,7.95,21.326247908812867,3.5163506923010313,1.0268427862753728,0.16341340042544922
0.5524967619922745,0.07323353306199673,0.08287485156114235,0.0476075696717102,154.96100539653378,21.596248075298153,124.17376920717282,0.007467603286055828,8.0,21.353923782046458,3.520157692284928,1.0311080832400206,0.1633789202259086
0.551421890754054,0.07032177535515242,0.0804142437372655,0.04773725832339748,156.0293922065886,21.772347501828726,124.22542820489927,0.007170702539584859,8.05,21.38154862014607,3.5238193689380277,1.0352518258180776,0.1633382949432613
0.550292967570021,0.06740493693062911,0.07792470697051945,0.04786112407388132,157.09915891495936,21.94862637249482,124.27729131399485,0.006873282464349196,8.1,21.409119714683772,3.527335457705785,1.0392725380049408,0.16329155608858692
0.5491101155141155,0.06448322852873384,0.07540683936013748,0.047979130269327944,158.170302766903,22.125077401551273,124.3293523467788,0.006575364595069865,8.15,21.43663436306227,3.5307057045523167,1.0431687733534667,0.16323873529451213
0.5478734641065054,0.061556861241627826,0.07286124581170228,0.04809124171748015,159.2428208727005,22.301693290814548,124.38160504399568,0.006276970503216339,8.2,21.464089868837977,3.5339298659787532,1.0469391153214735,0.16317986430653011
0.5465831492980002,0.05862604649807476,0.07028853789181974,0.04819742468405634,160.3167102079725,22.478466730190036,124.43404307631901,0.005978121795417344,8.25,21.4914835420433,3.5370077090408345,1.0505821776120587,0.16311497497448604
0.5452393134536869,0.055690996048164625,0.06768933368119281,0.048297646888889274,161.3919676140113,22.6553903982002,124.48666004587199,0.005678840111868635,8.3,21.518812699508203,3.539939011365738,1.0540966045066498,0.16304409924422683
0.5438421053357896,0.052751921948015985,0.06506425762613122,0.04839187750181261,162.46858979812853,22.83245696251355,124.53944948776443,0.005379147124738031,8.35,21.54607466518089,3.5427235611681462,1.0574810711907094,0.16296726914941626
0.5423916800857556,0.049809036544453754,0.06241394038853038,0.04848008713830247,163.54657333401926,23.009659080474393,124.592404871646,0.005079064536567453,8.4,21.573266770447677,3.545361157265547,1.060734284072016,0.1628845168035141
0.5408881992055716,0.04686255245966832,0.059739018694358846,0.04856224785488162,164.62591466214175,23.18698939963335,124.64551960327508,0.0047786140786725785,8.45,21.600386354451967,3.5478516090927696,1.0638549810914424,0.16279587439191948
0.5393318305383088,0.04391268257585323,0.05704013518068749,0.04863833314429354,165.70661009011334,23.364440558278567,124.69878702610302,0.004477817509539844,8.5,21.627430764412246,3.550194736715753,1.0668419320261604,0.16270137416427793
0.5377227482479019,0.04095964001982408,0.05431793824129865,0.04870831793045355,166.78865579312213,23.542005185967575,124.7522004228733,0.0041766966132211055,8.55,21.65439735593916,3.5523903708445457,1.0696939387851947,0.1626010484269514
0.5360611327981647,0.03800363814762127,0.05157308187091356,0.04877217856318416,167.8720478143544,23.719675904059827,124.80575301723536,0.0038752731977262393,8.6,21.681283493351554,3.554438352845537,1.0724098356972596,0.1624949295356507
0.5343471709310424,0.03504489052909388,0.048806225508072364,0.04882989281274152,168.95678206543798,23.897445326249787,124.85943797537257,0.0035735690934134323,8.65,21.708086549991464,3.556338534752918,1.0749884897908053,0.16238304988823013
0.5325810556441062,0.03208361093247044,0.04601803387670785,0.04888143986413988,170.0428543269012,24.075306059100594,124.91324840764399,0.0032716061513777743,8.7,21.734803908538016,3.558090779279373,1.077428801066209,0.16226544191764286
0.53076298616729,0.02912001330891378,0.04320917682644849,0.0489268003112807,171.13026024864766,24.253250702578228,124.96717737023965,0.002969406241837896,8.75,21.76143296132022,3.5596949598259964,1.0797297027600443,0.16214213808505712
0.5288931679388751,0.026154311777062726,0.04038032917168979,0.04896595615089311,172.21899535044636,24.431271850586164,125.02121786684869,0.0026669912525209513,8.8,21.787971110628586,3.561150960491442,1.0818901616013668,0.16201317087313175
0.5269718125807225,0.023186720607563174,0.037532170529474364,0.04899889077629201,173.30905502243772,24.609362091500458,125.07536285034023,0.0023643830870462334,8.85,21.81441576902553,3.562458676080295,1.0839091780599512,0.16187857277945064
0.5249991378727586,0.020217454207585885,0.03466538515621639,0.049025588970960356,174.40043452565473,24.787514008705234,125.12960522445638,0.002061603663307179,8.9,21.840764359654568,3.5636180121106733,1.0857857865864249,0.161738376310115
0.5229753677267169,0.017246727105336777,0.03178066178331259,0.04904603690196164,175.4931289925598,24.965720181128525,125.18393784551715,0.0017586749118523742,8.95,21.867014316548204,3.564628884821053,1.0875190558442358,0.16159261397349264
0.5209007321591357,0.014274753934556862,0.028878693451678004,0.049060222113188695,176.58713342759685,25.14397318377846,125.2383535241366,0.0014556187742652965,9.0,21.89316308493454,3.5654912211763197,1.0891080889334015,0.16144131827412295
0.51877546726362,0.011301749419014595,0.025960177345245798,0.04906813351845484,177.68244270775878,25.322265588279695,125.29284502695009,0.0011524572015431046,9.05,21.919208121542496,3.5662049588730476,1.0905520236059854,0.1612845217067772
0.5165998151823684,0.00832792835699319,0.023025814623472828,0.04906976139443306,178.77905158316997,25.50058996341012,125.34740507835207,0.0008492121524747598,9.1,21.945146894905676,3.5667700463439984,1.0918500324732476,0.16112225675067232
0.514374024076967,0.005353505605770677,0.020076310252888446,0.04906509737344887,179.87695467768424,25.678938875637765,125.402026362244,0.0005459055920182797,9.15,21.970976885664793,3.567186442761848,1.0930013232044213,0.1609545558638376
0.512098348098457,0.0023786960660968667,0.01711237283773088,0.049054134436132525,180.97614648949758,25.857304889657865,125.45670152379203,0.00024255948967757474,9.2,21.996695586868643,3.5674541180421366,1.0940051387170657,0.16078145147763298
0.5097730473566778,-0.0005962853333328212,0.014134714449707736,0.04903686690393588,182.07662139177614,26.035680568930054,125.51142317119394,-6.0804182121108575e-05,9.25,22.022300504273566,3.5675730528454417,1.0948607573589522,0.16060297599141785
0.5073983878888886,-0.0035712236514067177,0.011144050456924216,0.049013290431519134,183.17837363329903,26.214058476215662,125.56618387745495,-0.00036416344965311837,9.3,22.0477891566414,3.567543238578775,1.0955674930814376,0.16041916176736884
0.5049746416276742,-0.0065459039501252194,0.008141099352019614,0.04898340199901261,184.28139733911595,26.392431174115035,125.6209761821721,-0.0006674963395192426,9.35,22.073159076035843,3.567364677396205,1.0961246956042838,0.16023004112544603
0.5025020863681383,-0.009520111310130822,0.005126582579552681,0.04894719990415862,185.38568651121977,26.57079122560491,125.6757925933265,-0.0009707808802697243,9.4,22.098407808117226,3.5670373821986985,1.0965317505718848,0.16003564633850542
0.4999810057343864,-0.01249363084623563,0.0021012243626783653,0.0489046837543382,186.4912350292336,26.749131194575707,125.73062558908333,-0.001273995104027987,9.45,22.123532912435632,3.566561376633192,1.0967880797008625,0.1598360096275575
0.49741168914530587,-0.015466247722946504,-0.0009342484708434184,0.048855854458487454,187.59803665111255,26.92744364636881,125.78546761959883,-0.001577117048114061,9.5,22.148531962722352,3.56593669509088,1.0968931409189964,0.15963116315716927
0.4947944317796432,-0.018437747169987275,-0.003979106663265293,0.04880071421890811,188.7060850138601,27.1057211483137,125.84031110883419,-0.0018801247566676256,9.55,22.173402547179617,3.565163382704733,1.0968464284954542,0.1594211390310097
0.49212953454038677,-0.02140791449781559,-0.007032618702052025,0.04873926652297666,189.8153736342588,27.283956270264976,125.89514845637562,-0.002182996282270391,9.6,22.1981422687686,3.5642414953462334,1.096647473162291,0.15920596928753653
0.48941730401845657,-0.024376535113133816,-0.01009405099562349,0.04867151613475652,190.9258959096154,27.462141585139168,125.94997203926036,-0.0024857096875677376,9.65,22.22274874549562,3.5631710996213424,1.0962958422271885,0.15898568589582288
0.48665805245570515,-0.027343394534394168,-0.013162668049596645,0.048597469086517416,192.0376451185202,27.640269669451342,126.00477421380798,-0.002788243046889599,9.7,22.24721961069654,3.561952272865686,1.0957911396774074,0.1587603207515232
0.4838520977072378,-0.030308278407293818,-0.016237732643484208,0.04851713267016574,193.1506144216206,27.818333103851458,126.05954731745679,-0.003090574447870136,9.75,22.271552513319325,3.560585103138966,1.0951330062749276,0.15852990567297592
0.48099976320305116,-0.03327097252026277,-0.019318506007808545,0.04843051542859034,194.26479686240867,27.996324473660394,126.11428367060473,-0.0033926819930664522,9.8,22.295745118204685,3.5590696892186013,1.0943211196427534,0.15829447239744274
0.4781013779090003,-0.03623126281994023,-0.022404248001587215,0.04833762714692697,195.38018536802292,28.174236369405673,126.16897557845436,-0.003694543801575895,9.85,22.319795106364836,3.557406140592588,1.093355194342363,0.1580540525774818
0.4751572762870946,-0.03918893542663961,-0.02549421729014834,0.04823847884374555,196.49677275006357,28.352061387356777,126.22361533286148,-0.0039961380106519305,9.9,22.343700175260285,3.555594577451591,1.0922349819422836,0.15780867777745444
0.47216779825512967,-0.04214377664980177,-0.028587671523233354,0.048133082762163326,197.61455170542195,28.529792130060073,126.278195214187,-0.00429744277731852,9.95,22.367458039074638,3.553635130680259,1.0909602710777762,0.1575583794701632
0.46913328914566027,-0.0450955730034337,-0.0316838675133419,0.048021452360887874,198.7335148171235,28.707421206873274,126.33270749315147,-0.004598436279982693,10.0,22.391066428987394,3.5515279418477688,1.0895308875016145,0.15730318903362037
0.4660540996643173,-0.04804411122153297,-0.03478206141428014,0.04790360230519261,199.8536545551843,28.884941234499408,126.38714443269215,-0.004899096720045329,10.05,22.414523093444675,3.549273163197597,1.0879466941259475,0.157043137747945
0.46293058584747615,-0.0509891782734958,-0.0378815088998654,0.04777954845782856,200.97496327748112,29.06234483752026,126.44149828982168,-0.005199402323509888,10.1,22.43782579842789,3.5468709576365205,1.0862075910552336,0.15677825679238733
0.45976310901928014,-0.05393056137950887,-0.04098146534274759,0.04764930786987507,202.09743323063483,29.239624648929244,126.49576131748832,-0.005499331342589098,10.15,22.460972327720263,3.5443214987228457,1.0843135156102404,0.1565085772424789
0.45655203574802405,-0.05686804802592229,-0.04408118599330209,0.04751289877153244,203.22105655090712,29.416773310663665,126.54992576643716,-0.0057988620573092954,10.2,22.483960483171227,3.5416249706538703,1.082264442343103,0.15623413006730716
0.4532977378019051,-0.059801425980603666,-0.04717992615855189,0.047370340562859506,204.3458252651104,29.593783474136327,126.60398388707182,-0.006097972777112395,10.25,22.50678808495863,3.538781568252574,1.0800603830434379,0.1559549461269126
0.450000592104143,-0.0627304833082719,-0.05027694138107749,0.04722165380445846,205.47173129153057,29.770647800766483,126.6579279313163,-0.006396641842455327,10.3,22.529452971848723,3.5357914969535438,1.0777013867355103,0.15567105616980764
0.4466609806874793,-0.06565500838580905,-0.05337148761786802,0.04706686020810996,206.59876644086313,29.947358962510027,126.71175015447633,-0.006694847626406744,10.35,22.55195300145393,3.53265497278813,1.0751875396664565,0.15538249083061503
0.44327929064805666,-0.06857478991755055,-0.05646282141907469,0.0469059826273605,207.7269224171617,30.123909642388952,126.76544281710014,-0.006992568536241,10.4,22.574286050488304,3.5293722223688397,1.0725189652855631,0.15508928062782493
0.4398559140986874,-0.07148961695055087,-0.059550200106621126,0.04673904504806487,208.85619081879943,30.300292535019995,126.81899818683765,-0.007289783015029106,10.45,22.596450015020707,3.5259434828729623,1.0696958242146093,0.15479145596166866
0.43639124812151486,-0.07439927888982466,-0.06263288195262759,0.04656607257888557,209.9865631394431,30.476500347142455,126.87240854029825,-0.007586469543226599,10.5,22.618442810725643,3.522369002025435,1.0667183142092782,0.15448904711210812
0.43288569472007354,-0.0773035655135628,-0.0657101263576085,0.04638709144175148,211.11803076903954,30.652525798145113,126.92566616490627,-0.00788260664025829,10.55,22.64026237313172,3.5186490380809436,1.0635866701116468,0.1541820842369391
0.4293396607707559,-0.08020226698831989,-0.06878119402839687,0.046202128962277836,212.25058499481452,30.82836162059227,126.97876336075392,-0.00817817286609948,10.6,22.66190665786772,3.5147838598052656,1.0603011637937663,0.15387059737000702
0.42575355797368825,-0.08309517388417538,-0.07184534715575633,0.046011213560149346,213.38421700228386,31.004000560748796,127.03169244245106,-0.008473146822853876,10.65,22.683373640906257,3.5107737464558495,1.0568621040923465,0.15355461641953366
0.4221278028030233,-0.08598207718986457,-0.07490184959163684,0.04581437473946836,214.51891787627662,31.179435379104234,127.08444574097173,-0.00876750715632778,10.7,22.70466131880494,3.506618987761641,1.0532698367345588,0.15323417116655375
0.41846281645665806,-0.0888627683278792,-0.0779499670260296,0.04561164307906972,215.65467860197037,31.35465885089583,127.13701560549647,-0.009061232557600496,10.75,22.725767708945092,3.502319883902148,1.0495247442549769,0.15290929126345928
0.4147590248053773,-0.09173703916953797,-0.08098896716338254,0.04540305022280402,216.79149006593818,31.529663766630527,127.18939440525044,-0.009354301764591014,10.8,22.746690849767926,3.497876745485754,1.0456272459036755,0.15258000623265083
0.4110168583414344,-0.09460468205002272,-0.08401811989853003,0.0451886288697907,217.92934305720757,31.70444293260585,127.24157453133668,-0.00964669356362045,10.85,22.767428801008194,3.493289893527277,1.0415777975455063,0.15224634546529395
0.40723675212657273,-0.09746548978338265,-0.08703669749209741,0.044968412764642515,219.0682282683309,31.87898917142965,127.29354839856408,-0.009938386790970526,10.9,22.787979643925265,3.4885596594247756,1.0373768915505799,0.15190833822017927
0.40341914573949367,-0.10031925567750379,-0.09004397474533746,0.04474243668766263,220.20813629646733,32.05329532253866,127.34530844726974,-0.010229360334437736,10.95,22.808341481531595,3.4836863849356066,1.033025056675975,0.1515660136226851
0.39956448322278104,-0.10316577354904136,-0.09303922917435467,0.04451073644501566,221.34905764447606,32.22735424271584,127.39684714513511,-0.010519593134882994,11.0,22.82851243881857,3.4786704221517315,1.0285228579387082,0.15121940066384115
0.39567321302928243,-0.10600483773831769,-0.0960217411836797,0.04427334885887377,222.49098272202102,32.40115880660649,127.44815698899558,-0.010809064187776956,11.05,22.84849066297971,3.4735121334742796,1.0238708964799905,0.15086852819949137
0.3917457879679607,-0.10883624312417997,-0.09899079423914814,0.04403031175753901,223.63390184668629,32.57470190723303,127.4992305066431,-0.011097752544740463,11.1,22.868274323631173,3.4682118915873636,1.0190698094208066,0.15051342494955527
0.3877826651492165,-0.1116597851388206,-0.10194567504004429,0.043781663965542734,224.7778052451028,32.74797645650849,127.55006025862134,-0.011385637315080362,11.15,22.88786161302957,3.4627700794311544,1.0141202697088492,0.15015411949738602
0.38378430592969187,-0.11447525978255757,-0.10488567369046878,0.043527445293723196,225.9226830540857,32.920975385748626,127.60063884001298,-0.011672697667320391,11.2,22.907250746287033,3.457187090174213,1.009022985956847,0.14979064028922381
0.3797511758565604,-0.11728246363857235,-0.10781008386988689,0.04326769652928196,227.06852532178246,33.093691646182606,127.6509588822187,-0.011958912830726913,11.25,22.92643996158352,3.451463327185085,1.0037787022723235,0.14942301563374327
0.37568374461130977,-0.12008119388760773,-0.1107182030028197,0.043002459425820164,228.21532200883146,33.26611820946231,127.70101305472747,-0.012244262096829682,11.3,22.945427520376345,3.4455992040031567,0.9983881980788292,0.14905127370169372
0.3715824859530269,-0.12287124832262052,-0.11360933242763327,0.042731776693354956,229.36306298953104,33.43824806817011,127.75079406687765,-0.012528724820937143,11.35,22.96421170760691,3.439595144308776,0.9928522879286882,0.1486754425256304
0.3674478776611876,-0.12565242536339138,-0.11648277756438943,0.04245569198831707,230.51173805301883,33.61007423632515,127.80029466960855,-0.012812280423646447,11.4,22.982790831904563,3.433451581892645,0.9871718213073065,0.14829554999973624
0.3632804014779609,-0.12842452407108923,-0.11933784808171538,0.04217424990352996,231.66133690446114,33.78158974988808,127.84950765720197,-0.013094908392347952,11.45,23.00116322578762,3.4271689606244755,0.9813476824290871,0.147911623879732
0.35908054305003617,-0.131187344162788,-0.1221738580626521,0.04188749595817076,232.8118491662524,33.95278766726421,127.89842586901332,-0.013376588282723935,11.5,23.01932724586152,3.420747734420921,0.9753807900250013,0.14752369178287383
0.35484879186997503,-0.13394068602593814,-0.12499012616944288,0.04159547658771384,233.96326437922428,34.12366106980505,127.947042191192,-0.013657299720241765,11.55,23.03728127301402,3.4141883672127817,0.9692720971218687,0.14713178118803702
0.3505856412171018,-0.1366843507327877,-0.12778597580722112,0.04129823913385707,235.11557200386483,34.294203062308156,127.99534955839039,-0.013937022401640974,11.6,23.055023712607518,3.407491332911485,0.9630225908133966,0.14673591943588454
0.3462915880979336,-0.13941814005475492,-0.13056073528655915,0.04099583183443109,236.2687614215467,34.464406773515314,128.04334095546128,-0.014215736096414456,11.65,23.072552994668374,3.4006571153748455,0.9566332920230355,0.14633613372911933
0.34196713318616034,-0.14214185647675082,-0.13331373798483884,0.0406883038132919,237.42282193576526,34.63426535660899,128.09100941914332,-0.014493420648283588,11.7,23.08986757407327,3.3936862083721078,0.9501052552587075,0.1459324511328187
0.3376127807621835,-0.14485530321144843,-0.13604432250640355,0.04037570507019684,238.5777427733854,34.803771989707,128.13834803973378,-0.01477005597666694,11.75,23.106965930732578,3.3865791155482703,0.9434395683594655,0.14552489857485
0.3332290386522157,-0.14755828421350178,-0.1387518328414562,0.040058086470664125,239.73351308589798,34.972919876355405,128.1853499627486,-0.015045622078142881,11.8,23.123846569770688,3.379336350387698,0.9366373522341453,0.14511350284636598
0.32881641816695484,-0.1502506041937092,-0.14143561852366163,0.03973549973581597,240.89012195068483,35.14170224601952,128.23200839056926,-0.01532009902790551,11.85,23.140508021703297,3.3719584361770227,0.9296997605920725,0.1446982906023792
0.3243754340398348,-0.15293206863312314,-0.1440950347864187,0.03940799743220531,242.0475583722927,35.31011235457313,128.2783165840757,-0.015593466981214145,11.9,23.156948842611644,3.364445905967337,0.9226279796658894,0.14427928836241355
0.31990660436486296,-0.15560248379710453,-0.14672944271776203,0.03907563296162602,243.20581128371586,35.4781434847857,128.32426786426552,-0.01586570617483614,11.95,23.173167614313638,3.356799302535681,0.9154232279265685,0.14385652251123224
0.31541045053405314,-0.15826165674931916,-0.14933820941385736,0.03873846055090661,244.364869547687,35.645788946807734,128.36985561385845,-0.016136796928482782,12.0,23.18916294453188,3.349019178345826,0.9080867557906804,0.14343001929964103
0.31088749717445674,-0.1609093953656783,-0.15192070813105432,0.03839653524168721,245.52472195797674,35.81304207865409,128.4150732788862,-0.016406719646238493,12.05,23.204933467058584,3.34110609550836,0.9006198453199875,0.14299980484536529
0.30633827208480663,-0.16354550834821852,-0.15447631843645762,0.03804991288017966,246.68535724070114,35.9798962466853,128.45991437026703,-0.01667545481798279,12.1,23.220477841917308,3.333060625740076,0.8930238099134348,0.14256590513400025
0.30176330617177477,-0.1661698052389234,-0.1570044263569838,0.03769865010691045,247.84676405563712,36.14634484608687,128.50437246536467,-0.016942983020805304,12.15,23.23579475552155,3.324883350322665,0.8852999939916119,0.14212834602003258
0.2971631333858551,-0.1687820964334845,-0.1595044245268652,0.03734280434644628,249.00893099754592,36.312381301346456,128.5484412095313,-0.017209284920413574,12.2,23.25088292083014,3.3165748600607188,0.8774497726737627,0.141687153227933
0.29253829065688003,-0.17138219319499903,-0.16197571233356614,0.03698243379710185,250.17184659750416,36.47799906672895,128.59211431763433,-0.017474341272533354,12.25,23.26574107749943,3.3081357552390447,0.8694745514474194,0.1412423523533183
0.28788931782917393,-0.17396990766760734,-0.16441769606207823,0.03661759742062965,251.33549932424245,36.643191626749406,128.6353855755663,-0.01773813292430173,12.3,23.280367992032275,3.299566645579295,0.861375765830741,0.14079396886418186
0.2832167575963574,-0.17654505289006428,-0.16682978903755635,0.03624835493189124,252.49987758549136,36.807952496643786,128.67824884173777,-0.018000640815652474,12.35,23.294762457923735,3.2908681501959145,0.8531548810276371,0.1403420281021916
0.2785211554358061,-0.1791074428092476,-0.16921141176626514,0.03587476678850968,253.66496972933453,36.97227522283747,128.72069804855286,-0.018261845980693928,12.4,23.308923295803552,3.2820408975514113,0.8448133915757593,0.13988655528405458
0.2738030595427712,-0.18165689229360057,-0.17156199207479977,0.035496894180502586,254.830764045569,37.13615338341153,128.76272720386692,-0.018521729549079144,12.45,23.322849353575343,3.273085525410949,0.836352820987446,0.1394275755029464
0.26906302076417543,-0.18419321714650677,-0.1738809652475472,0.03511479901989539,255.9972487670722,37.29958058856671,128.80433039242618,-0.01878027274736806,12.5,23.33653950655248,3.2640026807962688,0.827774721383706,0.13896511373000567
0.26430159253208474,-0.186716234119599,-0.17616777416235696,0.03472854393031428,257.1644120711758,37.46255048108509,128.8455017772888,-0.01903745690038193,12.55,23.34999265759069,3.254793019938943,0.8190806731213286,0.1384991948158911
