ax,ay,az,pitch_rad,px,py,pz,roll_rad,time_s,vx,vy,vz,yaw_rad
0.0,0.0,0.0,0.006237747711717932,0.0,0.0,90.0,0.0,0.0,16.0,1.0,0.1,0.06241880999595735
0.0005399981775018452,0.004962452592207598,0.0002699963550147622,0.006237747711717932,0.8,0.05,90.005,0.0005060292932485998,0.05,16.0,1.0,0.1,0.06241880999595735
0.0010799854200590488,0.009924620741268124,0.0005399708404723883,0.006238573264465067,1.600000674997722,0.10000620306574026,90.01000033749544,0.0010120293222447311,0.1,16.000026999908876,1.0002481226296103,0.10001349981775075,0.06243415222058773
0.0016199507929484016,0.01488622002207093,0.0008099015885871646,0.00624022428477048,2.400003374974941,0.15003101497314736,90.01500168744987,0.0015179708247244476,0.15,16.00008099917988,1.0007443536666736,0.10004049835977437,0.06246483554292527
0.002159883361889553,0.019846966045577084,0.0010797667351160774,0.006242700602259148,3.2000094498724265,0.20008684043150865,90.02000472474484,0.002023824542400651,0.2,16.000161996719527,1.0014886646677772,0.10008099343920372,0.06251085770913663
0.002699772193266434,0.024806574476852337,0.001349544421129807,0.006246001961375255,4.000020249562605,0.25018608237245443,90.0250101241252,0.0025295612229510184,0.25,16.00026999088762,1.002481012970056,0.10013498177595953,0.0625722153385046
0.0032396063543486584,0.029764761053096635,0.0016192127947832868,0.006250128021390264,4.800037123822228,0.30034114123905326,90.03001856014453,0.003035151622005334,0.3,16.000404979497283,1.0037213416938988,0.10020245899701602,0.06264890392346777
0.0037793749135129093,0.034721241601669,0.0018887500130856905,0.006255078356413741,5.600061422305036,0.3505644142750645,90.03503070711038,0.0035405665051320263,0.35,16.000566959815,1.0052095797465537,0.10028341963675519,0.06274091782967378
0.00431906694046431,0.03967573205810668,0.002158134243669706,0.006260852455406926,6.400094494514428,0.40086829481439434,90.04004723902973,0.004045776649823713,0.4,16.000755928560675,1.0069456418266372,0.10037785713740947,0.0628482502960467
0.004858671506457758,0.04462794848413739,0.0024273436665599416,0.006267449722199107,7.200137689776136,0.4512651715707989,90.04506882955441,0.004550752847481564,0.45,16.0009718819077,1.0089294284295425,0.10048576384959296,0.06297089343486856
0.005398177684519228,0.049577607085683394,0.002696356475940331,0.006274869475506856,8.000192357210905,0.5017674279278812,90.05009615192647,0.005055465905398263,0.5,16.00121481548302,1.0111608258537494,0.10060713103292096,0.06310883823187625
0.005937574549667054,0.05452442423085646,0.0029651508819203997,0.006283110948956154,8.800259845707162,0.5523874412294258,90.05512987892371,0.005559886648739393,0.55,16.00148472436725,1.0136397062080336,0.10074194885671797,0.06326207454637364
0.006476851179133147,0.059468116467942415,0.003233705112300224,0.006292173291107492,9.600341503893711,0.6031375820701161,90.06017068280515,0.006063985922523045,0.6,16.00178160309473,1.0163659274195764,0.10089020640081399,0.06343059111136037
0.007015996652584186,0.06440840054337418,0.0035019974143339753,0.006302055565484017,10.400438680112421,0.6540302135866799,90.06521923525659,0.006567734593597446,0.65,16.002105445653687,1.0193393332429737,0.101051891656429,0.06361437553367744
0.007555000052342762,0.0693449934196921,0.0037700060564918774,0.006312756750602781,11.20055272239092,0.7050776907495079,90.07027620733618,0.007071103552616404,0.7,16.002456245486314,1.0225597532701423,0.1012269915271457,0.06381341429417096
0.008093850463608446,0.07427761229349045,0.004037709330220449,0.0063242757400092005,12.0006849784153,0.7562923596547896,90.0753422694201,0.0075740637160124,0.75,16.00283399548893,1.026027002941127,0.1014154918299703,0.06402769274787504
0.008632536974678823,0.07920597461334912,0.004305085551700885,0.006336611342314818,12.800836795502827,0.8076865568172128,90.08041809114827,0.008076586027967118,0.8,16.00323868801211,1.0297408835558015,0.10161737729648132,0.06425719512421435
0.009171048677170454,0.08412979809774894,0.004572113063605432,0.006349762281238445,13.601009520574651,0.8592726084632695,90.08550434137004,0.008578641462379199,0.85,16.003670314860845,1.033701182286469,0.10183263157406637,0.06450190452722816
0.009709374666239766,0.0890488007529699,0.004838770236851623,0.006363727195650826,14.40120450012854,0.911062829825215,90.09060168809008,0.009080201024829067,0.9,16.004128867294703,1.0379076721913565,0.10206123722724664,0.06476180293581671
0.010247504040803872,0.09396270089097097,0.005105035472354219,0.0063785046396229155,15.201423080211606,0.963069524435724,90.09571079841423,0.009581235754540606,0.95,16.004614336028016,1.042360112229005,0.10230317573908922,0.06503687120401123
0.010785425903761324,0.09887121714725036,0.005370887202774725,0.006394093082477892,16.00166660639306,1.015304983423288,90.10083233849552,0.010081716726339503,1.0,16.005126711230055,1.0470582472735535,0.10255842751270693,0.06532708906126916
0.011323129362212789,0.10377406849868494,0.005636303894268332,0.006410490908847049,16.80193642373694,1.0677814848083997,90.10596697348015,0.010581615052608065,1.05,16.005665982525244,1.052001808130916,0.10282697187284566,0.06563243511279584
0.011860603527681599,0.1086709742813481,0.005901264048228143,0.006427696418729696,17.602233876774907,1.120511292800569,90.11111536745366,0.011080901885236333,1.1,16.006232138993354,1.0571905115558502,0.10310878706755908,0.06595288683989449
0.01239783751633427,0.11356165420830439,0.006165746203026555,0.006445707827557205,18.402560309478982,1.1735066570962132,90.1162781833871,0.011579548417569271,1.15,16.006825169169737,1.0626240602699175,0.10340385026997048,0.06628842060034576
0.012934820449200897,0.11844582838738021,0.006429728935753635,0.00646452326626135,19.202917065234367,1.2267798121774693,90.12145608308336,0.012077525886349909,1.2,16.007445061045555,1.0683021429803328,0.10371213758012181,0.06663901162881884
0.013471541452395427,0.12332321733890914,0.006693190863952363,0.006484140781347117,20.003305486812206,1.28034297661197,90.12664972712354,0.012574805573658147,1.25,16.008091802068016,1.0742244343997018,0.1040336240269095,0.06700463403731587
0.014007989657335901,0.12819354201345107,0.006956110647350603,0.00650455833497012,20.803726916342423,1.3342083523536288,90.13185977481346,0.013071358808845173,1.3,16.008765379140634,1.0803905952666473,0.1043682835701071,0.06738526081565123
0.014544154200964488,0.1330565238094835,0.007218466989589652,0.006525773805018789,21.604182695286525,1.388388124044478,90.13708688413027,0.013567156970463156,1.35,16.0094657786235,1.0868002723673198,0.10471608910247464,0.06778086383196807
0.01508002422596751,0.13791188459106452,0.00748023863994923,0.006547784985201549,22.40467416441045,1.442894458317606,90.14233171166913,0.014062171488190178,1.4,16.01019298633355,1.093453098557794,0.10507701245195412,0.06819141383329373
0.01561558888099527,0.14275934670546586,0.007741404395068781,0.006570589585139109,23.20520266375741,1.4977395031012346,90.14759491259002,0.01455637384475011,1.45,16.01094698754485,1.1003486927873471,0.10545102438395158,0.06861688044613622
0.016150837320881795,0.14759863300077497,0.008001943100664934,0.006594185230462077,24.005769532620757,1.5529353869239837,90.15287714056471,0.015049735577827315,1.5,16.011727766988898,1.1074866601226205,0.10583809460370502,0.06905723217712392
0.016685758706864482,0.15242946684346542,0.008261833653244982,0.006618569462914101,24.80637610951685,1.6084942182213655,90.15817904772378,0.015542228281976003,1.55,16.012535308854943,1.1148665917726592,0.10623819175873828,0.06951243641369072
0.01722034220680354,0.1572515721359335,0.008521055001816264,0.00664373974046071,25.60702373215798,1.6644280846435529,90.16350128460377,0.016033823610523974,1.6,16.013369596790287,1.1224880651148326,0.10665128344140053,0.0699824594248087
0.017754576995401356,0.16206467333400126,0.008779586149591272,0.006669693437404063,26.407713737425254,1.7207490523644644,90.16884450009458,0.01652449327747071,1.65,16.014230613900626,1.1303506437216293,0.10707733619149135,0.07046726636177093
0.018288452254421727,0.16686849546438368,0.00903740615568839,0.0066964278445038215,27.20844746134153,1.7774691653922132,90.17420934138684,0.017014209059379518,1.7,16.015118342750394,1.1384538773883293,0.10751631549897091,0.0709668212590264
0.018821957172908896,0.17166276414211948,0.009294494136828086,0.006723940169104338,28.009226239044366,1.8346004448809603,90.17959645391949,0.01750294279726361,1.75,16.016032765363114,1.1467973021615485,0.10796818580675532,0.07148108703506999
0.01935508094740649,0.1764472055879644,0.009550829269024449,0.0067522275352683864,28.810051404758987,1.8921548884442154,90.18500648132749,0.017990666398465978,1.8,16.01697386322176,1.1553804403686545,0.10843291051359673,0.07201002549338946
0.0198878127821763,0.18122154664574552,0.009806390789271922,0.006781286983917662,29.610924291771262,1.9501444694696333,90.19044006538977,0.01847735183853278,1.85,16.01794161726913,1.1642028006480527,0.10891045197704795,0.07255359732347247
0.020420141889416876,0.185985514799676,0.010061157997227095,0.006811115472980238,30.4118462324007,2.008581136435343,90.1958978459771,0.01896297116308021,1.9,16.018936007908238,1.17326387798034,0.10940077151651155,0.0731117621018758
0.020952057489481986,0.1907388381916287,0.010315110256885416,0.00684170987754525,31.21281855797347,2.0674768122278597,90.20138046100043,0.019447496489654596,1.95,16.01995701500271,1.1825631537203238,0.1099038294163729,0.07368447829335978
0.0214835488110989,0.19548124563836755,0.010568226998252698,0.006873066990025002,32.01384259879547,2.1268433934616153,90.20688854635907,0.019930900009585546,2.0,16.021004617877185,1.1921000956299053,0.11041958492921718,0.07427170325209032
0.02201460509158653,0.20021246664873646,0.010820487719011288,0.0069051835203247525,32.81491968412534,2.1866927498001583,90.21242273588928,0.020413153989832095,2.05,16.02207879531774,1.2018741579118237,0.11094799627912981,0.07487339322291153
0.022545215577073327,0.2049322314408029,0.011071871986180721,0.006938056096020386,33.6160511421476,2.2470367232790602,90.21798366131289,0.020894230774821512,2.1,16.023179525572317,1.2118847812442606,0.11148902066508037,0.0754895033426914
0.0230753695227151,0.20964027095895718,0.011322359437772803,0.006971681262544241,34.41723829994568,2.3078871276305746,90.22357195218612,0.021374102788280818,2.15,16.024306786351172,1.2221313928163007,0.11204261426438941,0.07611998764174366
0.02360505619291257,0.21433631689096475,0.01157192978444091,0.0070060554833793216,35.21848248347514,2.3692557476100884,90.22918823584862,0.021852742535060636,2.2,16.02546055482731,1.2326134063642484,0.11260873223627806,0.07676479904532846
0.02413426486152876,0.2190201016849706,0.011820562811123413,0.007041175140262112,36.01978501753675,2.4311543383244145,90.23483313737266,0.022330122602951388,2.25,16.026640807636955,1.2433302222087967,0.11318732872550011,0.07742388937523478
0.02466298481210622,0.22369135856645625,0.01206823837868109,0.007077036533394278,36.82114722574968,2.4935946245619602,90.24050727951246,0.022806215664491643,2.3,16.02784752088003,1.2542812272930453,0.11377835686605628,0.07809720935144754
0.025191205338084013,0.22834982155514524,0.012314936425528384,0.007113635881663476,37.62257043052469,2.5565883001248206,90.24621128265373,0.02328099447876836,2.35,16.029080670120635,1.2654657952213682,0.11438176878499033,0.07878470859390224
0.02571891574301454,0.23299522548185986,0.012560636969258385,0.007150969322873522,38.424055953037396,2.620147027162833,90.25194576476352,0.023754431893209065,2.4,16.03034023038754,1.2768832862991255,0.11499751560626675,0.07948633562433022
0.026246105340780132,0.23762730600532403,0.012805320108261384,0.007189032913984174,39.22560511320145,2.6842824355096417,90.25771134134004,0.024226500845365602,2.45,16.03162617617469,1.2885330475732184,0.11562554745472968,0.08020203786819737
0.02677276345580945,0.24224579962891496,0.013048966023336906,0.007227822631360748,40.027219229641865,2.7490061220208095,90.26350862536292,0.024697174364689517,2.5,16.03293848144173,1.3004144128734847,0.11626581346014275,0.08093176165673943
0.02729887942329367,0.24685044371735942,0.01329155497929904,0.007267334371033881,40.82889961966827,2.81432964991402,90.26933822724345,0.025166425574298757,2.55,16.03427711961452,1.3125267028549303,0.1169182617613096,0.08167545222909679
0.027824442589402414,0.2514409765133759,0.013533067326574987,0.00730756394896961,41.63064759924828,2.880264548111413,90.27520075477524,0.02563422769273564,2.6,16.035642063585684,1.3248692250407983,0.11758283951027454,0.08243305373455183
0.02834944231149954,0.25601713715426005,0.01377348350279667,0.007348507101350072,42.4324644829808,2.9468223105840945,90.28109681308491,0.026100554035715963,2.65,16.037033285715154,1.3374412738664672,0.11825949287660328,0.08320450923487183
0.02887386795835861,0.26057866568841315,0.014012784034385254,0.007390159484865051,43.234351584069444,3.0140143956988608,90.28702700458312,0.026565378017869016,2.7,16.038450757830727,1.35024213072418,0.11894816705174312,0.08398976070676059
0.029397708910378195,0.2651253030918121,0.014250949538128523,0.007432516677014628,44.03631021429592,3.08185222556718,90.29299192891575,0.027028673154468465,2.75,16.039894451228644,1.3632710640086008,0.11964880625346239,0.08478874904442173
0.02992095455979692,0.26965679128442077,0.01448796072275089,0.007475574176423154,44.83834168399349,3.150347185396475,90.29899218291536,0.027490413063153987,2.8,16.041364336674164,1.3765273291631914,0.12036135373036881,0.0856014140622365
0.030443594310908262,0.2741728731465396,0.014723798390475986,0.007519327403164854,45.6404473020204,3.2195106228437402,90.30502836055277,0.027950571465643326,2.85,16.042860384402154,1.3900101687274125,0.12108575176650635,0.08642769449755963
0.030965617580275124,0.27867329253509565,0.014958443438581666,0.0075637716991012165,46.4426283757334,3.289353847371544,90.31110105288909,0.028409122189434973,2.9,16.0443825641177,1.4037188123847395,0.12182194168603015,0.08726752801363585
0.031487013796944144,0.2831577942998682,0.01519187686094733,0.007608902328230473,47.24488621096126,3.35988812960645,90.3172108480277,0.028866039169500975,2.95,16.045930844996715,1.4176524770114942,0.12256986385795923,0.08812085120264013
0.032007772402659736,0.2876261242996527,0.015424079749593395,0.007654714477049398,48.04722211197834,3.4311247006998995,90.32335833106669,0.029321296449970093,3.0,16.04750519568656,1.4318103667264876,0.1233294577010066,0.08898759958884486
0.032527882852077944,0.2920780294183588,0.01565503329621283,0.007701203254927627,48.849637381478175,3.5030747516915985,90.32954408405143,0.029774868185800916,3.05,16.049105584306695,1.4461916729414703,0.12410066168848627,0.0898677076319168
0.03304733461297993,0.2965132575810436,0.01588471879369464,0.007748363694494777,49.65213332054708,3.575749432875445,90.33576868592748,0.030226728644444926,3.1,16.0507319784493,1.4607955744123882,0.1248834133532969,0.09076110873034687
0.0335661171664853,0.30093155776987784,0.016113117637639115,0.0077961907520405545,50.45471122863781,3.6491598531680407,90.34203271249363,0.03067685220749945,3.15,16.05238434517995,1.4756212372914403,0.12567764929298164,0.09166773522501565
0.034084220007265055,0.3053326800400451,0.016340211327864753,0.007844679307928088,51.25737240354327,3.723317079479825,90.34833673635532,0.031125213372350264,3.2,16.054062651038272,1.4906678151799342,0.1264833051748636,0.0925875184028974
0.03460163264375439,0.30971637553557174,0.016565981469906826,0.007893824167020735,52.06011814137019,3.7982321360888722,90.35468132687822,0.03157178675380382,3.25,16.055766862038634,1.5059344491819364,0.12730031574125683,0.09352038850090601
0.03511834459836509,0.31408239650508757,0.01679040977650726,0.00794362005912252,52.862949736512924,3.8739160040173886,90.36106705014213,0.032016547085708946,3.3,16.057496943670824,1.521420267958715,0.12812861481475218,0.09446627470988486
0.03563434540769773,0.3184304963175156,0.017013478069095936,0.007994061639432476,53.66586848162721,3.950379620410956,90.36749446889509,0.0324594692225679,3.35,16.05925286090074,1.5371243877839693,0.12896813530357754,0.09542510517874446
0.03614962462275356,0.3227604294776907,0.017235168279263104,0.008045143489013055,54.468875667604,4.027633877920551,90.37396414250784,0.032900528141136774,3.4,16.061034578171128,1.553045912599845,0.12981880920703234,0.09639680701874966
0.03666417180914607,0.32707195164190483,0.017455462450222954,0.008096860115272823,55.27197258354334,4.105689624087391,90.38047662692854,0.03333969894201493,3.45,16.062842059402264,1.5691839340737295,0.1306805676209955,0.0973813063079599
0.03717797654731234,0.33136481963337944,0.017674342738268085,0.00814920595246363,56.07516051672821,4.18455766073063,90.38703247463766,0.03377695685122363,3.5,16.064675267992722,1.5855375316558247,0.13155334074350666,0.09837852809582483
0.03769102843272396,0.33563879145766257,0.017891791414214837,0.008202175362192456,56.878440752598536,4.264248743337963,90.39363223460326,0.03421227722177355,3.55,16.066534166820087,1.6021057726374937,0.13243705788042007,0.09938839640793803
0.038203317076097795,0.3398936263179507,0.018107790864839348,0.008255762633948092,57.68181457472508,4.34477358045916,90.40027645223654,0.03464563553522119,3.6,16.068418718241723,1.6188877122103769,0.1333316474511308,0.10041083425095143
0.03871483210360631,0.3441290846303342,0.018322323594304215,0.008309961985642846,58.48528326478351,4.426142833102577,90.40696566934768,0.035077007403214025,3.65,16.070328884095527,1.6358823935262743,0.13423703699437275,0.10144576361765292
0.03922556315708769,0.34834492803896433,0.01853537222557565,0.008364767564169462,59.28884810252841,4.508367114134678,90.41370042410189,0.03550636856902439,3.7,16.072264625700708,1.653088847757791,0.13515315317408796,0.10249310549220973
0.039735499894255545,0.3525409194311431,0.01874691950183099,0.008420173445973358,60.092510365767396,4.591456987682617,90.42048125097588,0.03593369490907189,3.75,16.07422590385856,1.6705060941597392,0.13607992178536674,0.10355277985557984
0.04024463198890838,0.35671682295233226,0.018956948287856545,0.008476173637640385,60.89627133033519,4.675422968539892,90.42730868071453,0.03635896243443435,3.8,16.076212678853274,1.6881331401312962,0.13701726776045828,0.10462470569109376
0.04075294913113867,0.36087240402108267,0.01916544157143546,0.008532762076500264,61.70013227006783,4.7602755215751476,90.43418324028792,0.036782147292347175,3.85,16.078224910452718,1.705968981278913,0.1379651151748511,0.10570880099020925
0.041260441027541665,0.36500742934388214,0.019372382464725772,0.00858993263124575,62.50409445677688,4.84602506114412,90.44110545284863,0.037203225767691035,3.9,16.080262557909276,1.724012601479967,0.13892338725342288,0.1068049827584406
0.041767097401423786,0.36912166692992043,0.019577754205628257,0.008647679102567783,63.30815916022363,4.932681950504798,90.44807583768939,0.03762217428446778,3.95,16.082325579960653,1.7422629729471613,0.13989200637665916,0.10791316702146525
0.04227290799301079,0.37321488610577175,0.01978154015914419,0.008705995223806613,64.11232764809341,5.020256501235818,90.45509491020098,0.03803896940726458,4.0,16.084413934830724,1.7607190562936572,0.14087089408694056,0.10903326883140924
0.04277786255965548,0.37728685752999197,0.01998372381872277,0.008764874661619125,64.91660118596994,5.108758972658133,90.46216318183053,0.038453587842706104,4.05,16.086527580230374,1.7793798005989458,0.14185997109489779,0.11016520227331376
0.04328195087604515,0.38133735320763207,0.020184288807598105,0.008824311016662366,65.72098103730966,5.198199571259992,90.46928116004004,0.038866006440894794,4.1,16.08866647335836,1.7982441434754455,0.14285915728583393,0.11130888047178457
0.04378516273440859,0.3853661465046636,0.020383218880115746,0.008884297824293442,66.52546846341617,5.288588450125274,90.47644934826533,0.03927620219683897,4.15,16.09083057090216,1.817311011135827,0.14386837172621383,0.11246421559782602
0.044287487944722884,0.3893730121623191,0.020580497923048596,0.00894482855528582,67.3300647234147,5.3799357083651955,90.48366824587525,0.03968415225186895,4.2,16.09301982903888,1.8365793184610602,0.14488753267021962,0.1136311188758614
0.04478891633491968,0.39335772631134325,0.020776109956902038,0.00900589661656212,68.13477107422658,5.472251390553452,90.49093834813117,0.04008983389504092,4.25,16.095234203436117,1.856047969069176,0.14591655756637203,0.11480950059094133
0.04528943775109121,0.3973200664861553,0.020970039137208275,0.009067495351943478,68.93958877054379,5.565545486164799,90.49826014614693,0.040493224564528536,4.3,16.097473649252862,1.8757158553847433,0.14695536306421714,0.11599927009614143
0.04578904205769592,0.4012598116389226,0.02116226975580974,0.009129618042915474,69.74451906480363,5.659827929017144,90.50563412684906,0.04089430184900228,4.35,16.099738121140415,1.895581858709051,0.14800386502107754,0.1172003358201507
0.04628771913776364,0.4051767421535422,0.021352786242131425,0.009192257909410735,70.54956320716322,5.755108596717145,90.51306077293731,0.041293043488996345,4.4,16.1020275732433,1.915644849290997,0.14906197850886801,0.11841260527505226
0.04678545889310057,0.40907063985953196,0.021541573164442097,0.00925540811060819,71.3547224454743,5.851397310109387,90.52054056284555,0.0416894273782632,4.45,16.10434195920019,1.935903686398674,0.1501296178209746,0.11963598506429714
0.04728225124449365,0.41294128804582847,0.021728615231104274,0.009319061745749008,72.15999802525792,5.948703832729144,90.52807397070306,0.04208343156511559,4.5,16.106681232144847,1.9563572183916507,0.15120669647919668,0.12087038089087235
0.047778086131914754,0.4167884714744926,0.02191389729181282,0.00938321185496922,72.96539118967921,6.047037870258785,90.53566146629606,0.042475034253756073,4.55,16.109045344707074,1.977004282793942,0.1522931272407519,0.1221156975656644
0.04827295351472436,0.4206119763943195,0.02209740433882212,0.009447851420149048,73.77090317952222,6.146409069987825,90.54330351502972,0.04286421380559386,4.6,16.11143424901367,1.9978437063676666,0.15338882210534252,0.12337183901601886
0.04876684337187487,0.42441159055435423,0.022279121508161703,0.009512973365778863,74.5765352331648,6.246827020276701,90.5510005778904,0.04325094874054907,4.65,16.113847896689407,2.0188743051873828,0.15449369232228363,0.12463870829449665
0.049259745702113535,0.42818710321731224,0.022459034080840195,0.009578570559841796,75.38228858655349,6.348301250024263,90.5587531114084,0.043635217738344396,4.7,16.116286238858002,2.0400948847151006,0.15560764839769173,0.1259162075878279
0.049751650524185044,0.43193830517290155,0.022637127484037588,0.009644635814712928,76.1881644731785,6.450841228139039,90.56656156762088,0.04401699963978388,4.75,16.11874922614311,2.061504239875966,0.15673060010173373,0.1272042382260638
0.05024254787703354,0.43566498875104837,0.02281338729228559,0.009711161888075026,76.99416412404881,6.554456363014303,90.57442639403533,0.044396273448019,4.8,16.12123680866932,2.083101155134611,0.1578624564759356,0.12850270069192657
0.05073242782000441,0.43936694783502345,0.0229877992286361,0.009778141483850715,77.80028876766713,6.659156002006973,90.58234803359325,0.04477301832980192,4.85,16.123748936063173,2.1048844045721635,0.15900312584054987,0.12981149463035793
0.05122128043304554,0.4430439778744699,0.02316034916581763,0.009845567253151067,78.60653963000506,6.764949430920375,90.59032692463431,0.045147213616725926,4.9,16.126285557454175,2.1268527519639147,0.16015251580198167,0.13113051885826643
0.05170909581690823,0.4466958758983306,0.023331023127379627,0.009913431795240454,79.41291793447832,6.871845873490914,90.59836350086087,0.045518838806452966,4.95,16.128846621475827,2.149004950857638,0.16131053326027256,0.13245967137447323
0.05219586409334762,0.45032244052767395,0.023499807288824497,0.009981727658517583,80.21942490192188,6.979854490878669,90.60645819130279,0.0458878735639282,5.0,16.131432076266673,2.1713397446525544,0.16247708441664155,0.13379884936985612
0.05268157540532276,0.45392347198841854,0.023666687978727473,0.010050447341512628,81.02606175056533,7.088984381161956,90.61461142028273,0.046254297722581675,5.05,16.13404186947134,2.193855866678938,0.16365207478108276,0.13514794923769224
0.05316621991719616,0.457498772123955,0.023831651679843885,0.010119583293900225,81.83282969600815,7.199244578835889,90.62282360738176,0.046618091285516965,5.1,16.136675948241606,2.216552040278359,0.16483540918001913,0.13650686658419792
0.05364978781493303,0.4610481444076647,0.023994685030204153,0.010189127917528334,82.63972995119512,7.310644054314962,90.63109516740535,0.04697923442668689,5.15,16.139334259237465,2.239426978884557,0.1660269917640113,0.13787549623926615
0.05413226930629995,0.4645713939553332,0.024155774824196032,0.010259073567462647,83.44676372639175,7.423191713439699,90.63942651034984,0.04733770749205604,5.2,16.142016748628212,2.26247938610494,0.16722672601552152,0.1392537322674003
0.05461365462106322,0.4680683275374602,0.024314908013634288,0.01032941255304651,84.25393222915979,7.53689639698739,90.64781804136915,0.0476934910007504,5.25,16.144723362093526,2.2857079558027067,0.16843451475673132,0.14064146797884372
0.05509393401118668,0.4715387535914623,0.024472071708817583,0.010400137138976055,85.06123666433274,7.651766880186948,90.656270160742,0.04804656564619374,5.3,16.147454044824578,2.3091113721795797,0.16965026015741305,0.14203859594090387
0.05557309775102906,0.4749824822337699,0.02462725317957253,0.010471239546390464,85.86867823399147,7.767811872237917,90.66478326383951,0.048396912297231046,5.35,16.150208741525137,2.3326883098591527,0.17087386374285393,0.1434450079894699
0.056051136137541015,0.4783993252718163,0.024780439856284843,0.010542711953977033,86.67625813743993,7.885040015833667,90.67335774109311,0.048744511999238675,5.4,16.152987396412687,2.356437433970841,0.17210522640183257,0.14486059524072314
0.05652803949046156,0.4817890962159196,0.02493161933091747,0.010614546499090893,87.48397757118074,8.003459886688798,90.68199397796302,0.04908934597522154,5.45,16.155789953219564,2.380357400234432,0.17334424839464682,0.14628524810303772
0.05700379815251409,0.4851516102910544,0.025080779358015615,0.01068673527888913,88.29183772889108,8.123079993070789,90.69069235490691,0.04943139562689697,5.5,16.158616355194088,2.404446855045228,0.1745908293611927,0.1477188562890715
0.05747840248960197,0.48848668444851473,0.02522790785569864,0.010759270351479031,89.09983980139849,8.243908775335916,90.69945324734917,0.049770642535765464,5.55,16.161466545101714,2.428704435559781,0.17584486832909346,0.14916130882804401
0.05795184289100356,0.49179413737746613,0.025372992906638678,0.010832143737080227,89.90798497665669,8.365954605469467,90.70827702565045,0.05010706846416832,5.6,16.164340465226193,2.4531287697822064,0.1771062637218784,0.15061249407820085
0.05842410976956695,0.49507378951638714,0.025516022759025925,0.010905347419200408,90.71627443972162,8.4892257866303,90.71716405507767,0.050440655356332006,5.65,16.167238057370742,2.47771847665108,0.17837491336721034,0.1520722997394619
0.058895193561903945,0.4983254630643984,0.025656985827520535,0.010978873345824383,91.52470937272737,8.613730552699748,90.72611469577448,0.05077138533939933,5.7,16.17015926285922,2.5024721661268994,0.17965071450516162,0.1535406128662514
0.05936508472858387,0.5015489819924793,0.025795870694191037,0.011052713430616128,92.33329095486228,8.739477067834923,90.73512930273202,0.0510992407244474,5.75,16.173104022537313,2.527388439280119,0.18093356379653766,0.15501731988050782
0.05983377375432666,0.5047441720545718,0.025932666109439163,0.011126859554133542,93.14202036234505,8.866473426026419,90.74420822576022,0.05142420400749246,5.8,16.17607227677374,2.5524658883797433,0.18222335733124723,0.15650230658487105
0.060301251148195574,0.5079108607985688,0.026067360992911074,0.011201303565055554,93.95089876840093,8.994727650660474,90.75335180945942,0.05174625787048131,5.85,16.179063965461456,2.577703096982472,0.18351999063671917,0.15799545817604424
0.06076750744378932,0.5110488775771905,0.026199944434394846,0.011276037281421274,94.75992734323795,9.124247694085597,90.76256039319249,0.052065385182269774,5.9,16.182079028018865,2.6030986400224005,0.18482335868636474,0.159496659258328
0.061232533199433864,0.5141580535587419,0.026330405694704215,0.011351052491880814,95.5691072540232,9.255041437183689,90.77183431105735,0.052381568999587694,5.95,16.185117403391054,2.6286510839012602,0.18613335590808447,0.1610057938573239
0.06169631899837358,0.5172382217377569,0.026458734206548425,0.011426340956957418,96.37843966485924,9.387116688945701,90.78117389185986,0.05269479256799086,6.0,16.188179030051025,2.654358986579197,0.1874498761928197,0.16252274543380413
0.06215885544896184,0.5202892169455249,0.02658491957538818,0.011501894410320538,97.18792573676053,9.520481186051834,90.79057945908725,0.05300503932279967,6.05,16.191263846000943,2.680220897666085,0.18877281290314712,0.16404739689774517
0.06262013318485132,0.523310875860499,0.026708951580277588,0.01157770456006946,97.9975666276299,9.655142592456318,90.80005133088189,0.0533122928900246,6.1,16.194371788773392,2.706235358513361,0.19010205888191653,0.16557963062252096
0.06308014286518368,0.5263030370185874,0.026830820174692075,0.011653763090027091,98.80736349223505,9.791108498976811,90.80958982001545,0.05361653708727841,6.15,16.197502795432634,2.732400902306386,0.1914375064609304,0.16711932845925345
0.06353887517477856,0.5292655408233252,0.026950515487342123,0.011730061661043473,99.61731748218527,9.928386422888405,90.81919523386371,0.0539177559246752,6.2,16.200656802575892,2.7587160541573157,0.192779047469665,0.1686663717513162
0.06399632082432241,0.5321982295559272,0.027068027822972855,0.011806591912308652,100.42742974590804,10.066983807522298,90.82886787438154,0.05421593360571627,6.25,16.20383374633463,2.785179331198482,0.19412657324403212,0.17022064134898804
0.06445247055055646,0.5351009473852202,0.027183347663149327,0.011883345462674432,101.2377014286258,10.206908021869166,90.83860803807853,0.05451105452816275,6.3,16.207033562375848,2.8117892426762783,0.19547997463518077,0.17178201762425277
0.06490731511646429,0.5379735403774549,0.027296465667027543,0.011960313911984585,102.04813367233278,10.348166360187212,90.84841601599487,0.054803103284895086,6.35,16.210256185903376,2.8385442900455393,0.19683914201833824,0.1733503804857411
0.06536084531145901,0.5408158565059968,0.027407372672111026,0.012037488842413091,102.85872761577184,10.490766041614961,90.85829209367787,0.05509206466475934,6.4,16.2135015516592,2.865442967064412,0.19820396530168963,0.17492560939381085
0.06581305195156971,0.5436277456608941,0.02751605969499301,0.012114861819809912,103.66948439441144,10.634714209788815,90.8682365511588,0.05537792365340036,6.45,16.216769593924774,2.892483759889712,0.19957433393529517,0.17650758337576153
0.0662639258796273,0.5464090596583245,0.02762251793208407,0.012192424395053858,104.48040514042262,10.780017932465377,90.87824966293019,0.05566066543408179,6.5,16.22006024652235,2.919665147172757,0.20095013692004482,0.17809618104117875
0.06671345796545022,0.5491596522499171,0.027726738760325196,0.012270168105412075,105.29149098265609,10.92668420114859,90.8883316979236,0.05594027538849291,6.55,16.22337344281633,2.946985600155673,0.202331262816649,0.1796912805974044
0.06716163910602904,0.5518793791319527,0.02782871373788629,0.012348084475905642,106.10274304661937,11.074719930721686,90.89848291948788,0.056216739097542524,6.6,16.226709115714606,2.974443582768169,0.20371759975466527,0.18129275986512838
0.06760846022571103,0.5545680979544372,0.02792843460484993,0.012426165020680809,106.91416245445397,11.22413195908401,90.90870358536777,0.05649004234213946,6.65,16.230067197669907,3.0020375517247664,0.2051090354415596,0.18290049629409655
0.06805391227638374,0.5572256683300525,0.028025893283880398,0.012504401244385385,107.72575032491274,11.37492704679269,90.9189939476831,0.05676017110396034,6.7,16.233447620681194,3.029765956622488,0.20650545717180208,0.1845143669789312
0.06849798623765836,0.5598519518429803,0.02812108188087799,0.012582784643549718,108.53750777333714,11.527111876709226,90.92935425290831,0.057027111566204,6.75,16.236850316295012,3.0576272400389906,0.2079067518359961,0.18613424867505865
0.06894067311705242,0.5624468120576002,0.028213992685618396,0.012661306707971826,109.34943591163469,11.680693053650979,90.93978474185246,0.057290850114332985,6.8,16.240275215606896,3.0856198376311395,0.20931280593004,0.18776001781473944
0.06938196395017165,0.565010114527062,0.028304618172377224,0.012739958922106104,110.16153584825643,11.835677104047607,90.95028564963982,0.057551373336802124,6.85,16.24372224926275,3.1137421782340193,0.21072350556432093,0.18939155052319612
0.06982184980089182,0.5675417268017291,0.028392951000539592,0.012818732766455088,110.97380868817451,11.992070475602466,90.96085720569076,0.05780866802577383,6.9,16.24719134746026,3.1419926839603725,0.2121387364729398,0.19102872263483323
0.07026032176153944,0.5700415184374966,0.028478984015194726,0.012897619718963789,111.78625553285977,12.149879536958988,90.97149963370316,0.05806272117782073,6.95,16.250682439950303,3.170369770300459,0.21355838402296679,0.1926714097095451
0.07069737095307234,0.5725093610039785,0.02856271024771547,0.012976611256415983,112.59887748025949,12.309110577372058,90.98221315163433,0.0583135199946151,7.0,16.25419545603838,3.198871846222334,0.21498233322372653,0.1943194870491055
0.0711329885252593,0.5749451280925684,0.028644122916322772,0.013055698855831998,113.4116756247751,12.469769806384429,90.99299797168332,0.058561051883605476,7.05,16.257730324586035,3.227497314272533,0.2164104687361123,0.1959728297136343
0.07156716565685935,0.5773486953243693,0.02872321542663498,0.013134873995867399,114.22465105724005,12.631863353508171,91.00385430027377,0.058805304458680326,7.1,16.261286974012297,3.256244570677161,0.21784267488192843,0.19763131253813537
0.07199989355580043,0.5797199403579949,0.028799981372202008,0.013214128158212025,115.03780486489775,12.795397267911184,91.01478233803715,0.059046265540818856,7.15,16.26486533229514,3.28511200544338,0.21927883565326017,0.19929481014910094
0.07243116345935739,0.5820587428972394,0.028874414535024234,0.01329345282898886,115.85113813137946,12.9603775181088,91.02578227979653,0.05928392315872883,7.2,16.26846532697293,3.3140980024612796,0.22071883472187026,0.200963196981176
0.0728609666343294,0.5843649846986175,0.028946508886056165,0.01337283950015215,116.66465193668243,13.126809991660485,91.0368543145508,0.059518265549471774,7.25,16.272086885145896,3.3432009396061417,0.22216255544862148,0.20263634729387797
0.07328929437721686,0.5866385495787734,0.029016258585694787,0.01345227967088421,117.47834735714802,13.294700494871664,91.04799862545933,0.05974928115907518,7.3,16.275729933477614,3.3724191888410724,0.2236098808929243,0.20431413518836522
0.07371613801439761,0.5888793234217558,0.029083657984252567,0.013531764848990402,118.29222546543988,13.464054752500692,91.05921538982722,0.059976958643131906,7.35,16.279394398196473,3.401751116320011,0.22506069382220903,0.20599643462424985
0.0741414889023026,0.5910871941861637,0.029148701622415066,0.013611286552291652,119.10628733052222,13.63487840747097,91.07050477909081,0.060201286867386954,7.4,16.283080205097193,3.4311950824910986,0.22651487672142165,0.20768311943644738
0.07456533842759085,0.5932620519121581,0.02921138423168316,0.013690836310014026,119.9205340176382,13.807177020588258,91.0818669588039,0.06042225490831142,7.45,16.286787279542306,3.460749442200407,0.2279723118025424,0.2093740633520591
0.07498767800732396,0.5954037887283402,0.02927170073479977,0.013770405664174729,120.73496658828834,13.980956070263169,91.09330208862431,0.06063985205366377,7.5,16.290515546463684,3.4904125447960146,0.22943288101412657,0.21106914000728016
0.07540849908913992,0.5975122988584972,0.02932964624616112,0.01384998617096402,121.54958610020904,14.156220952238879,91.10481032230093,0.06085406780303836,7.55,16.29426493036405,3.5201827342324314,0.23089646605086656,0.21276822296432815
0.07582779315142618,0.5995874786282127,0.02938521607221247,0.013929569402122467,122.36439360735112,14.332976979324075,91.11639180766129,0.06106489186840138,7.6,16.298035355318508,3.550058349175356,0.23236294836317462,0.21447118572838575
0.07624555170349229,0.6016292264713443,0.0294384057118283,0.014009146946312952,123.17939015985849,14.511229381131127,91.12804668659953,0.06127231417461413,7.65,16.30182674497608,3.580037723106767,0.23383220916678524,0.21617790176455187
0.07666176628574184,0.6036374429363653,0.02948921085667687,0.014088710410486914,123.99457680404691,14.690983303819555,91.13977509506502,0.06147632485994375,7.7,16.305639022561255,3.610119184430334,0.23530412945237666,0.21788824451479502
0.0770764284698438,0.6056120306925715,0.029537627391569236,0.014168251421244261,124.80995458238283,14.872243809844742,91.1515771630512,0.06167691427656126,7.75,16.309472110875543,3.6403010565771523,0.2367785899952105,0.21960208741490322
0.07748952985890309,0.6075528945361525,0.029583651394792538,0.014247761626186356,125.62552453346218,15.055015877711964,91.1634530145852,0.06187407299102721,7.8,16.313325932299033,3.670581658111781,0.23825547136478897,0.22131930391142396
0.07790106208763069,0.6094599413961266,0.02962727913842768,0.014327232695261594,126.44128769198946,15.239304401735723,91.17540276771769,0.06206779178476467,7.85,16.31720040879198,3.7009593028385885,0.2397346539345286,0.22303976747858856
0.07831101682251303,0.6113330803401403,0.029668507088651278,0.014406656322102977,127.25724508875668,15.425114191804397,91.18742653451334,0.06225806165451986,7.9,16.321095461896363,3.731432299908395,0.24121601789145,0.2247633516352149
0.07871938576198076,0.6131722225801298,0.02970733190602191,0.014486024225357164,128.07339775062252,15.612449973150241,91.19952442104177,0.06244487381281019,7.95,16.325011012737487,3.761998953925402,0.24269944324588258,0.2264899299615823
0.07912616063657676,0.6149772814778462,0.029743750445750592,0.014565328150004421,128.8897467004916,15.801316386124736,91.21169652736896,0.06262821968836003,8.0,16.328946982025588,3.7926575650544083,0.24418480984118368,0.22821937611627205
0.07953133320912381,0.6167481725502433,0.029777759757955522,0.014644559868669029,129.70629295729367,15.991717985979303,91.22394294754908,0.06280809092652391,8.05,16.332903290057416,3.8234064291283008,0.2456719973634712,0.22995156385296922
0.07993489527489107,0.6184848134747266,0.029809357087901,0.014723711182919492,130.52303753596303,16.183659242651405,91.23626376961694,0.06298447938969744,8.1,16.33687985671787,3.854243837755813,0.247160885351369,0.2316863670372171
0.08033683866176057,0.620187124094266,0.029838539876220586,0.014802773924558145,131.339981447418,16.37714454055604,91.24865907558087,0.06315737715771595,8.15,16.340876601481614,3.8851680784295493,0.24865135320576404,0.233423659663121
0.08073715523039242,0.621855026422368,0.029865305759124373,0.014881739956899565,132.15712569854043,16.572178178382632,91.261128941416,0.0633267765282406,8.2,16.3448934434147,3.9161774346342626,0.25014328019957505,0.23516331586999345
0.08113583687438976,0.6234884446479105,0.029889652568590483,0.014960601176037324,132.97447129215521,16.768764368897376,91.27367343705818,0.06349267001713248,8.25,16.34893030117622,3.947270185955381,0.2516365454875313,0.23690520995893571
0.08153287552046298,0.6250873051398382,0.02991157833254066,0.015039349512098541,133.79201922701012,16.966907238750956,91.28629262639826,0.06365505035881418,8.3,16.35298709301994,3.9784446081877762,0.25313102811596083,0.2386492164093498
0.08192826312859304,0.626651536451718,0.029931081275000014,0.01511797693048579,134.6097704977555,17.166610828291766,91.29898656727698,0.06381391050661936,8.35,16.357063736795965,4.0096989734447686,0.2546266070325879,0.2403952098953745
0.08232199169219438,0.6281810693261558,0.02994815981624086,0.015196475433105832,135.4277260949242,17.36787909138457,91.31175531148021,0.06396924363312993,8.4,16.361160149952394,4.041031550267355,0.25612316109633787,0.24214306530223986
0.08271405323827706,0.6296758366990727,0.029962812572910714,0.015274837059584719,136.24588700491142,17.570715895234592,91.3245989047348,0.06412104313050124,8.45,16.365276249537004,4.0724406037336625,0.2576205690871499,0.24389265774253482
0.08310443982760815,0.63113577370384,0.02997503835814428,0.015353053888468787,137.06425420995484,17.77512502021715,91.33751738670487,0.06426930261077478,8.5,16.369411952198917,4.103924395568616,0.2591187097157955,0.2456438625723815
0.08349314355487257,0.6325608176752763,0.029984836181659643,0.0154311180384111,137.88282868811456,17.98111015971271,91.35051079098861,0.06441401590617929,8.55,16.373567174190296,4.135481184253808,0.2606174616337027,0.2473965554075105
0.0838801565488331,0.6339509081535012,0.02999220524983846,0.015509021669342867,138.70161141325352,18.188674919947495,91.36357914511552,0.06455517706941925,8.6,16.377741831368038,4.167109225137572,0.2621167034427857,0.2491506121392324
0.08426547097248988,0.6353059868876497,0.029997144965790232,0.015586756983629439,139.5206033550176,18.397822819839565,91.37672247054422,0.06469278037395164,8.65,16.381935839195478,4.1988067705452465,0.2636163137052776,0.2509059089502988
0.08464907902323895,0.6366259978394438,0.02999965492940067,0.015664316227210373,140.3398054788161,18.608557290850435,91.38994078266069,0.06482682031425037,8.7,16.386149112744103,4.230572069889629,0.2651161709535671,0.25266232233064806
0.08503097293303043,0.637910887186625,0.029999734937364093,0.015741691690723265,141.1592187458021,18.820881676842216,91.40323409077703,0.06495729160605908,8.75,16.390381566695265,4.262403369781601,0.2666161537000371,0.2544197290930304
0.0854111449685257,0.6391606033262422,0.029997384983199902,0.01581887571061081,141.978844112853,19.03479923394028,91.41660239813072,0.06508418918663152,8.8,16.394633115341914,4.294298914140932,0.2681161404469053,0.2561780063885061
0.08578958743125399,0.6403750968778007,0.029992605257253096,0.015895860670210798,142.7986825325513,19.250313130401487,91.4300457018843,0.06520750821496026,8.85,16.39890367259034,4.326256944307245,0.2696160096960653,0.2579370317218126
0.08616629265776839,0.641554320686266,0.029985396146678868,0.015972639000828626,143.61873495316513,19.46742644648795,91.44356399312566,0.06532724407199327,8.9,16.4031931519619,4.358275699151135,0.27111563995892796,0.25969668296659515
0.08654125301980094,0.6426982298249284,0.029975758235411227,0.016049203182791946,144.43900231862904,19.68614217434636,91.4571572568688,0.06544339236083872,8.95,16.407501466594788,4.390353415185448,0.2726149097662619,0.2614568383804946
0.0869144609244171,0.6438067815981228,0.029963692304115722,0.016125545746487065,145.25948556852504,19.906463217892917,91.4708254720549,0.06555594890695779,9.0,16.411828529245778,4.422488326676694,0.27411369767803245,0.2632173766200894
0.08728590881416957,0.644879935543807,0.029949199330126183,0.016201659273376835,146.08018563806348,20.128392392703752,91.48456861155418,0.0656649097583456,9.05,16.416174252292,4.4546786657566,0.27561188229323824,0.26497817675568525
0.08765558916725127,0.6459176534359968,0.02993228048736559,0.016277536396999574,146.90110345806409,20.351932425911013,91.498386642168,0.06577027118570031,9.1,16.420538547732708,4.48692266253379,0.27710934225974454,0.26673911828594776
0.08802349449764772,0.6469198992870588,0.029912937146250946,0.016353169803948832,147.72223995493718,20.577085956104497,91.5122795246316,0.06587202968258037,9.15,16.424921327191072,4.51921854520559,0.27860595628411283,0.2685000811523745
0.08838961735528848,0.6478866393498588,0.029891170873582312,0.016428552234833554,148.54359605066486,20.803855533238885,91.52624721361724,0.06597018196555002,9.2,16.429322501915955,4.551564540169943,0.2801016031414254,0.27026094575360043
0.08875395032619825,0.6488178421197679,0.029866983432415874,0.016503676485218464,149.36517266278236,21.03224361854657,91.5402896577379,0.06606472497431286,9.25,16.43374198278372,4.583958872137436,0.28159616168510454,0.2720215929595333
0.08911648603264681,0.6497134783365257,0.029840376781921137,0.016578535406544314,150.18697070435945,21.26225258445609,91.55440679955146,0.0661556558718338,9.3,16.438179680300028,4.6163997642434245,0.28308951085672535,0.27378190412531345
0.08947721713329847,0.6505735209859583,0.029811353077222245,0.016653121907027744,151.008991083982,21.49388471451618,91.56859857556528,0.06624297204444907,9.35,16.44263550460166,4.648885438160251,0.2845815296958214,0.275541761105095
0.08983613632336078,0.6513979453015551,0.02977991466922341,0.016727428952540542,151.8312347057335,21.727142203325425,91.58286491624142,0.06632667110196477,9.4,16.447109365458324,4.681414114209549,0.28607209734968253,0.2773010462656435
0.09019323633473242,0.6521867287658991,0.029746064104418497,0.01680144956746796,152.6537024691768,21.962027156467528,91.59720574600223,0.06640675087774335,9.45,16.451601172274493,4.7139840114746265,0.2875610930831437,0.2790596424997457
0.09054850993615035,0.6529398511119562,0.02970980412468474,0.016875176835546013,153.47639526933597,22.198541590452216,91.61162098323652,0.0664832094287787,9.5,16.45611083409123,4.746593347912921,0.28904839628836465,0.2808174332394285
0.09090194993333628,0.6536572943242184,0.029671137667060678,0.016948603900677373,154.29931399667794,22.43668743266175,91.6261105403061,0.06655604503575936,9.55,16.460638259588038,4.779240340468519,0.2905338864945989,0.2825743024689822
0.09125354916914236,0.6543390426397042,0.02963006786350823,0.0170217239677258,155.12245953709476,22.67646652130308,91.64067432355291,0.06662525620312011,9.6,16.465183357084705,4.81192320518473,0.29201744337795194,0.2843301347377851
0.09160330052369604,0.6549850825488156,0.029586598040659037,0.017094530303288863,155.94583277188545,22.917880605365617,91.65531223330665,0.066690841659082,9.65,16.46974603454316,4.844640157316715,0.29349894677112737,0.28608481517292544
0.0919511969145444,0.6555954027960488,0.02954073171954498,0.017167016236448767,156.76943457773828,23.16093134458464,91.67002416389276,0.06675280035568054,9.7,16.474326199569344,4.877389411444156,0.29497827667316034,0.2878382294916173
0.09229723129679736,0.6561699943805631,0.02949247261531299,0.017239175159501186,157.5932658267129,23.40562030941034,91.68481000364106,0.06681113146878245,9.75,16.47892375941507,4.910169181583958,0.2964553132591376,0.2895902640134077
0.09264139666327052,0.6567088505566049,0.029441824636924123,0.01731100052866191,158.41732738622278,23.651948980982514,91.69966963489479,0.06686583439809073,9.8,16.48353862097991,4.942977681302986,0.29792993688990327,0.29134080567217113
0.092983686044627,0.6572119668337869,0.02938879188683694,0.017382485864751177,159.2416201190176,23.89991875111086,91.71460293402008,0.06691690876713807,9.85,16.488170690813075,4.975813123830816,0.2994020281217495,0.29308974202788796
0.09332409250951851,0.6576793409772238,0.029333378660675206,0.01745362475385565,160.0661448831658,24.149530922260944,91.72960977141602,0.06696435442326874,9.9,16.492819875115305,5.008673722172506,0.30087146771609136,0.29483696127820574
0.09366260916472574,0.6581109730075237,0.029275589446879934,0.017524410847967818,160.89090253203722,24.40078670754579,91.74469001152517,0.06700817143760891,9.95,16.49748607974078,5.041557689221367,0.3023381366491251,0.2965823522697782
0.09399922915529799,0.6585068652006354,0.029215428926345856,0.0175948378656029,161.71589391428572,24.65368723072312,91.75984351284444,0.06704836010502532,10.0,16.502169210199018,5.074463237871743,0.3038019161214691,0.2983258045093812
0.09433394566469201,0.6588670220875511,0.02915290197204223,0.017664899592392973,162.5411198738321,24.908233526198206,91.77507012793667,0.0670849209440725,10.05,16.50686917165678,5.107388581131775,0.3052626875677864,0.30006720817480226
0.09466675191490989,0.6591914504538652,0.02908801364861818,0.017734589881658488,163.366581249847,25.164426539032405,91.79036970344252,0.06711785469692827,10.1,16.511585868940017,5.140331932236153,0.30672033266638854,0.3018064541255014
0.09499764116663638,0.6594801593391895,0.02902076921199242,0.01780390265495698,164.1922788767339,25.42226712495728,91.8057420800929,0.06714716232931796,10.15,16.516319206535762,5.173291504758846,0.30817473334881945,0.30354343391304134
0.09532660671937554,0.6597331600364226,0.028951174108927547,0.017872831902609018,165.01821358411215,25.681756050394398,91.82118709272186,0.06717284503042675,10.2,16.521069088594093,5.206265512725806,0.3096257718094191,0.30527803979128476
0.0956536419115861,0.6599504660908779,0.028879233976588866,0.017941371684201315,165.84438619680026,25.942893992480734,91.83670457027996,0.06719490421280086,10.25,16.52583541893006,5.239252170727627,0.31107333051486546,0.3070101647263565
0.09597874012081661,0.6601320932992655,0.02880495464208776,0.018009516129067125,166.67079753479916,26.20568153909973,91.85229433584819,0.06721334151223685,10.3,16.53061810102564,5.272249694032171,0.3125172922136949,0.3087397024063697
0.09630189476383946,0.6602780597085306,0.028728342122009705,0.01807725943674377,167.49744841327558,26.47011918891796,91.86795620665217,0.0672281587876597,10.35,16.53541703803168,5.305256298697134,0.3139575399457993,0.3104665472509134
0.09662309929678413,0.6603883856145484,0.028649402621926955,0.01814459587740748,168.32433964254562,26.736207351427453,91.88368999407712,0.0672393581209891,10.4,16.540232132769873,5.33827020168256,0.31539395705189976,0.3121905944203001
0.09694234721526986,0.6604630935606753,0.02856814253589584,0.018211519792285483,169.15147202805827,27.003946346993597,91.89949550368299,0.06724694181699456,10.45,16.545063287734713,5.371289620963288,0.31682642718299614,0.3139117398245727
0.09725963205453715,0.6605022083361569,0.028484568445938913,0.01827802559404548,169.97884637037902,27.27333640690871,91.9153725352203,0.06725091240313869,10.5,16.549910405095478,5.404312775641322,0.31825483430979096,0.315629880132269
0.0975749473895789,0.6605057569743901,0.028398687121511758,0.018344107767162467,170.80646346517386,27.544377673451198,91.93132088264635,0.06725127262940908,10.55,16.554773386698205,5.437337886058129,0.3196790627320879,0.31734491277894245
0.09788828683527033,0.6604737687510449,0.028310505518954702,0.018409760868263132,171.634324103193,27.817070199950322,91.94734033414184,0.06724802546813884,10.6,16.559652134067683,5.470363173906849,0.3210989970881635,0.3190567359754388
0.09819964404649835,0.660406275182041,0.02822003078092934,0.018474979526447763,172.46242907025493,28.0914139508566,91.96343067212815,0.06724117411381535,10.65,16.564546548409446,5.503386862344401,0.3225145223641112,0.3207652487159279
0.09850901271829011,0.6603033100213818,0.028127270235839975,0.018539758443589877,173.29077914723047,28.3674088018178,91.97959167328483,0.06723072198287777,10.7,16.56945653061177,5.536407176103503,0.32392552390315765,0.32247035078568853
0.09881638658594055,0.6601649092588443,0.028032231397240058,0.01860409239461367,174.11937511002697,28.6450545397605,91.99582310856779,0.06721667271350282,10.75,16.574381981247686,5.569422341604572,0.32533188741494967,0.3241719427686483
0.09912175942513937,0.6599911111175281,0.027934921963223544,0.01866797622774941,174.9482177295726,28.924350862977306,92.01212474322779,0.06719903016537922,10.8,16.579322800576982,5.602430587067514,0.3267334989848117,0.3258699260546759
0.09942512505209701,0.6597819560512597,0.02783534981580138,0.01873140486476682,175.77730777180074,29.20529738121958,92.02849633682949,0.06717779841947052,10.85,16.58427888854824,5.63543014262339,0.32813024508297284,0.3275642028466263
0.09972647732366988,0.6595374867418551,0.027733523020263082,0.01879437330118687,176.60664599763447,29.487893615795812,92.04493764327091,0.06715298177776652,10.9,16.589250144800847,5.668419240425953,0.3295220125737629,0.32925467616713916
0.10002581013748478,0.65925774809624,0.0276294498245234,0.018856876606471767,177.43623316297118,29.772138999675537,92.06144841080338,0.06712458476302299,10.95,16.59423646866703,5.701396114763046,0.3309086887247761,0.3309412498651899
0.10032311743206246,0.6589427872434279,0.027523138658454294,0.01891890992419365,178.2660700186672,30.058032877598812,92.0780283820519,0.06709261211849013,11.0,16.599237759173906,5.734359002167858,0.33229016121600224,0.33262382862239387
0.10061839318694038,0.6585926535313552,0.02741459813320209,0.018980468472182013,179.09615731052267,30.34557450619126,92.09467729403602,0.06705706880762927,11.05,16.60425391504551,5.76730614153003,0.33366631814892495,0.3343023179590634
0.10091163142279456,0.6582073985235759,0.027303837040489984,0.01904154754265005,179.92649577926642,30.634763054084672,92.11139487819112,0.06701796001381816,11.1,16.60928483470486,5.800235774206597,0.33503704805558504,0.33597662424001906
0.10120282620156079,0.6577870759958134,0.02719086435190593,0.019102142502300162,180.75708616054095,30.925597602043158,92.1281808603902,0.0669752911400447,11.15,16.614330416275997,5.833146144132776,0.33640223990760953,0.3376466546801547
0.10149197162655471,0.6573317419323716,0.027075689218175943,0.019162248792408906,181.5879291848875,31.218077143094792,92.14503496096603,0.06692906780858915,11.2,16.619390557586076,5.866035497932566,0.33776178312520483,0.3393123173497573
0.10177906184259136,0.6568414545224053,0.026958320968422874,0.019221861928891443,182.41902557773133,31.512200582668836,92.1619568947338,0.06687929586069477,11.25,16.624465156167403,5.898902085029185,0.3391155675861136,0.34097352117958274
0.1020640910361037,0.656316274156048,0.02683876910941078,0.019280977502345902,183.250376059367,31.807966738738447,92.17894637101433,0.0668259813562269,11.3,16.629554109259534,5.931744157755305,0.34046348363453477,0.34263017596568723
0.10234705343526025,0.6557562634204006,0.026717043324774887,0.01933959117807779,184.08198134494378,32.105374341968904,92.19600309365745,0.06676913057332044,11.35,16.63465731381134,5.964559971463108,0.3418054220900053,0.3442821923740175
0.10262794331008214,0.6551614870953796,0.02659315347423719,0.01939769869610472,184.91384214445114,32.404422035871335,92.21312676106612,0.06670875000801588,11.4,16.639774666483103,5.997347784634128,0.3431412742562441,0.3459294819447582
0.10290675497255898,0.6545320121494238,0.02646710959280785,0.019455295871141767,185.74595916270442,32.70510837696191,92.23031706622078,0.06664484637388358,11.45,16.644906063648605,6.030105858988897,0.3444709319299559,0.34757195709644
0.10318348277676415,0.6538679077350629,0.026338921889972344,0.01951237859256766,186.57833309933056,33.00743183492654,92.24757369670426,0.0665774266016367,11.5,16.650051401397235,6.062832459596368,0.34579428740959633,0.3492095311298084
0.10345812111896906,0.6531692451843449,0.02620860074886451,0.019568942824372087,187.4109646487539,33.31139079279102,92.2648963347271,0.06650649783873219,11.55,16.655210575536074,6.095525854983121,0.34711123350409495,0.35084211823145545
0.10373066443775665,0.6524360980041254,0.02607615672542554,0.019624984605084484,188.2438545001821,33.61698354709666,92.28228465715324,0.06643206744896046,11.6,16.660383481592024,6.128184317242338,0.3484216635415382,0.3524696334772156
0.10400110721413405,0.6516685418712174,0.02594160054754891,0.019680500047684478,189.07700333759223,33.92420830808128,92.29973833552623,0.06635414301202339,11.65,16.665570014813913,6.160806122142544,0.34972547137780946,0.35409199283532705
0.1042694439716443,0.6508666546274016,0.025804943114211453,0.01973548533949434,189.91041183971694,34.23306319986575,92.31725703609581,0.06627273232310044,11.7,16.67077007017462,6.193389549236105,0.3510225514051869,0.35570911316936105
0.10453566927647716,0.650030516274301,0.025666195494590573,0.01978993674205377,190.74408068003063,34.54354626064583,92.33484041984497,0.06618784339240359,11.75,16.675983542373203,6.225932881967475,0.3523127985608975,0.3573209122409203
0.10479977773757938,0.6491602089681134,0.02552536892716757,0.01984385059097731,191.57801052673588,34.85565544288955,92.35248814251737,0.06609948444472014,11.8,16.681210325837025,6.25843440778119,0.353596108335627,0.3589273087121094
0.1050617640067636,0.6482558170142102,0.025382474818817436,0.019897223295794613,192.4122020427499,35.169388613539816,92.3701998546453,0.06600766391894414,11.85,16.686450314723903,6.290892418229596,0.35487237678198535,0.360528222147778
0.10532162277881686,0.6473174268615952,0.025237524743884805,0.019950051339774098,193.2466558856911,35.48474355422256,92.38797520157793,0.06591239046759607,11.9,16.69170340292424,6.323305209080306,0.3561415005229262,0.36212357301754
0.10557934879160788,0.6463451270972275,0.02509053044324649,0.02000233127973007,194.08137270786577,35.80171796146015,92.40581382351,0.06581367295633084,11.95,16.69696948406318,6.355671080423386,0.35740337676012046,0.36371328269757053
0.1058349368261937,0.6453390084402071,0.02494150382336049,0.020054059745813778,194.91635315625493,36.12030944689019,92.42371535551106,0.06571152046343391,12.0,16.70224845150276,6.387988336778248,0.3586579032822828,0.365297273472183
0.10608838170692536,0.6442991637358253,0.024790456955301535,0.020105233441288766,195.75159787250112,36.44051553748965,92.44167942755494,0.06560594227930601,12.05,16.70754019834407,6.420255287200258,0.3599049784734508,0.36687546853518865
0.10633967830155272,0.6432256879494787,0.024637402073783333,0.020155849142290738,196.58710749289546,36.762333675804335,92.4597056645498,0.06549694790593591,12.1,16.712844617429415,6.452470245387049,0.3611445013212159,0.3684477919910413
0.10658882152132826,0.6421186781604467,0.024482351576167634,0.020205903697572393,197.42288264836478,37.08576122018363,92.47779368636846,0.06538454705636144,12.15,16.71816160134449,6.484631529784523,0.3623763714249051,0.3700141688557695
0.10683580632111035,0.6409782335555353,0.024325318021459937,0.02025539402823349,198.2589239644589,37.410795445020554,92.49594310787917,0.06526874965411886,12.2,16.72349104242056,6.516737463692546,0.36360048900371345,0.3715745250576989
0.1070806276994652,0.6398044554225862,0.024166314129292342,0.020304317127436612,199.09523206133784,37.737433540997124,92.51415353897688,0.06514956583268036,12.25,16.728832832736614,6.548786375370322,0.36481675490478643,0.3731287874379678
0.1073232806987683,0.6385974471438502,0.024005352778893176,0.02035267006010878,199.9318075537593,38.06567261533492,92.53242458461479,0.06502700593487981,12.3,16.734186864121586,6.580776598141451,0.36602507061125106,0.37467688375083785
0.10756376040530469,0.6373573141892286,0.023842447008043798,0.020400449962629495,200.76865105106626,38.395509692050915,92.55075584483633,0.06490108051232679,12.35,16.739553028156525,6.612706470498644,0.3672253382501957,0.3762187426638035
0.10780206194936849,0.6360841641093795,0.02367761001202261,0.0204476540425054,201.6057631571746,38.72694171221858,92.5691469148076,0.06477180032480861,12.4,16.74493121617679,6.644574336208105,0.3684174606005979,0.377754293757503
0.10803818050536164,0.6347781065286925,0.02351085514253613,0.020494279578032033,202.44314447056087,39.059965534234124,92.58759738485014,0.0646391763396807,12.45,16.75032131927426,6.676378544413574,0.369601341101199,0.3792834675254335
0.10827211129189142,0.63343925313813,0.023342195906637636,0.020540323917942912,203.2807955842502,39.39457793408796,92.60610684047414,0.06450321973124508,12.5,16.755723228299527,6.708117449740009,0.3707768838583258,0.3808061953734736
0.10850384957186739,0.6320677176879368,0.02317164596563302,0.02058578448104642,204.1187170858043,39.730775605641384,92.62467486241194,0.06436394188011688,12.55,16.76113683386412,6.739789412396916,0.37194399365365766,0.382322409619216
0.10873339065259731,0.6306636159802181,0.022999219133974236,0.02063065875585082,204.95690955730947,40.06855516090834,92.64330102665208,0.06422135437257918,12.6,16.766562026342715,6.771392798281313,0.3731025759519393,0.38383204349111416
