ax,ay,az,pitch_rad,px,py,pz,roll_rad,time_s,vx,vy,vz,yaw_rad
0.12,0.35,-0.04,0.006232414990324272,40.0,-30.0,115.0,0.03567492524966318,0.0,16.0,1.2,0.1,0.07485984771076686
0.12494952517579924,0.3499873563261257,-0.03690012412767557,0.0061049918999835215,40.800149999999995,-29.9395625,115.00495,0.03567363759387119,0.05,16.006,1.2175,0.098,0.07591903033047749
0.12989770142245088,0.34994942621800285,-0.03380099298561917,0.0059872366463250455,41.60060618690647,-29.878250015804593,115.00980387484483,0.03566977471881772,0.1,16.01224747625879,1.2349993678163063,0.09615499379361622,0.07697602443764606
0.1348439298875742,0.34988621241606516,-0.03070335112518096,0.005879139211527759,42.40138093284619,-29.816062610631008,115.01456937329328,0.03566333690146417,0.15,16.018742361329913,1.2524968391272064,0.09446494414433526,0.07803070395501852
0.13978761186840716,0.3497977194874824,-0.027607942739918352,0.005780686329315999,43.20248660582504,-29.753000410909127,115.0192542413116,0.03565432460339212,0.2,16.025484557824292,1.2699911497480096,0.09292977658807622,0.0790829434850752
0.14472814888425015,0.34968395382583006,-0.0245155114868071,0.0056918614969332345,44.003935568231086,-29.689063606272367,115.02386622021258,0.035642738470772345,0.25,16.032473938417713,1.2874810357223838,0.0915493794510803,0.08013261834501056
0.14966494274888323,0.3495449236506279,-0.02142680030758126,0.0056126449887332844,44.80574017533807,-29.624252449543967,115.02841304479578,0.03562857933432132,0.3,16.039710345861927,1.3049652334136752,0.09032360387673995,0.08117960460127392
0.15459739564294833,0.3493806390067454,-0.018342551250245052,0.005543013871373526,45.60791277380961,-29.55856725671872,115.03290244148923,0.035611848209245324,0.35,16.04719359299937,1.3224424795962066,0.08925226386136088,0.08222377910364978
0.15952491018628773,0.34919111176367673,-0.015263505290799374,0.005482942020593338,46.41046570020413,-29.492008406940155,115.03734212649323,0.035592546295172174,0.4,16.054923462781517,1.3399115115465439,0.08833513629884863,0.08326501951885594
0.16444688951022968,0.34897635561468265,-0.012190402155225856,0.0054324001395597565,47.21341127948094,-29.424576342473124,115.04173980392656,0.035570674976070464,0.45,16.062899708290832,1.3573710671347277,0.08757196103430867,0.08430320436363933
0.16936273732981297,0.34873638607580165,-0.009123980141771317,0.005391355778761022,48.016761823507366,-29.35627156867187,115.04610316397559,0.0355462358201565,0.5,16.071122052766345,1.3748198849154618,0.08696244092654738,0.08533821303734891
0.17427185801594114,0.34847122048472845,-0.006064975943575079,0.00535977335742754,48.820529629567346,-29.2870946539435,115.05043988104673,0.0355192305797887,0.55,16.079590189632835,1.392256704219252,0.08650624191945881,0.08636992585396629
0.17917365666745802,0.3481808779995616,-0.0030141244716820614,0.005337614186458542,49.62472697887151,-29.217046229706934,115.05475761192277,0.035489661191349685,0.6,16.088303782533632,1.4096802652434883,0.08620299312228005,0.08739822407357509
0.18406753918313568,0.3478653795974195,2.7841321516099138e-05,0.005324836492831654,50.429366135069024,-29.14612699034726,115.0590639939233,0.03545752977511593,0.65,16.097262465367006,1.4270893091434664,0.08605228689869596,0.08842298993325086
0.18895291233356618,0.34752474807292427,0.003060190618369353,0.005321395445471346,51.23445934276135,-29.07433769316559,115.0633666430699,0.035422838635115,0.7,16.106465842326163,1.4444825781233375,0.08605367896477176,0.08944410667735363
0.19382918383294828,0.3471590080365555,0.00608219491154461,0.005327243182551292,52.04001882601807,-29.00167915832433,115.0676731522564,0.035385590258970395,0.75,16.11591348794284,1.4618588155269836,0.08620668849569023,0.0904614585872062
0.1986957624107606,0.3467681859128718,0.009093128179046207,0.005342328840204504,52.846056786895,-28.928152268787937,115.07199108942483,0.03534578731773406,0.8,16.125604947134487,1.4792167659288114,0.08651079824126746,0.09147493101014194
0.20355205788331232,0.34635230993860144,0.012092267058639097,0.005366598582614156,53.65258540395474,-28.853757970259107,115.0763279957471,0.03530343266570637,0.85,16.135539735255026,1.496555175224455,0.08696545465021978,0.09248441038790615
0.20839748122516324,0.34591141016060273,0.015078891021633227,0.005399995633457028,54.45961683078984,-28.77849727111046,115.08069138381344,0.035258529340243885,0.9,16.145717338149193,1.5138727907213851,0.08757006800315173,0.09348978428439637
0.21323144464040378,0.34544551843369276,0.018052282545987036,0.005442460308670563,55.26716319454883,-28.70237124231169,115.08508873582738,0.03521108056155463,0.95,16.156137212210453,1.5311683612294154,0.08832401255423339,0.09449094141272711
0.21805336163378713,0.34495466841834627,0.0210117272886887,0.005493930050513631,56.07523659446515,-28.625381017352176,115.08952750180828,0.03516108973248102,1.0,16.166798784442474,1.5484406371511,0.08922662668153274,0.09548777166160564
0.22286264708170433,0.3444388955782632,0.02395651425737364,0.005554339462890247,56.88384910038932,-28.547527792159098,115.09401509780146,0.035108560438270424,1.05,16.177701452524165,1.5656883705720173,0.09027721304596717,0.09648016612100602
0.22765871730299406,0.343898237177807,0.02688593598113697,0.0056236203479046775,57.69301275132438,-28.468812825011025,115.09855890409658,0.03505349644633337,1.1,16.18884458487825,1.5829103153509305,0.09147503875883585,0.0974680171071292
0.23244099012957825,0.3433327322793118,0.029799288680499934,0.005701701743615581,58.50273955396492,-28.389237436447004,115.1031662634545,0.03499590170598935,1.15,16.2002275207434,1.6001052272098208,0.0928193355578927,0.09845121818663817
0.23720888497691545,0.34274242174026065,0.03269587243648967,0.00578850996295614,59.31304148123975,-28.308803009171164,115.10784447934324,0.034935780348200385,1.2,16.21184957024988,1.6172718638237864,0.09430929999191769,0.09942966420015731
0.2419618229142627,0.34212734821033314,0.035574991358791254,0.005883968633786389,60.12393047085847,-28.2275109879528,115.11260081418338,0.03487313668529209,1.25,16.223710014498725,1.6344089849107994,0.09594409361374218,0.10040325128502622
0.24669922673473843,0.34148755612832427,0.03843595375293211,0.005987998740043375,60.93541842386205,-28.145362879521997,115.11744248760327,0.034807975210662534,1.3,16.235808105644438,1.6515153523213162,0.09772284318168174,0.10137187689729929
0.25142052102517654,0.3408230917189336,0.04127807228645811,0.006100518663954117,61.74751720317769,-28.06236025246077,115.12237667470454,0.034740300598478706,1.35,16.248143066981175,1.6685897301277324,0.09964464086932835,0.10233543983298216
0.2561251322357648,0.3401340029894257,0.04410066415406213,0.006221444229275818,62.560238632178034,-27.978504737089736,115.12741050433836,0.034670117703360696,1.4,16.260714093032433,1.685630884713679,0.10170854448365126,0.10329384024849825
0.2608124887494575,0.33942033972616154,0.04690305124162452,0.006350688745527264,63.373594493244944,-27.893798025350318,115.13255105739273,0.034597431560053536,1.45,16.273520349644222,1.7026375848631503,0.10391357769135436,0.10424697968037802
0.2654820209511557,0.33868215349100145,0.049684560289126885,0.006488163053174836,64.1875965263381,-27.808241870682505,115.13780536509134,0.03452224738308676,1.5,16.286560974081695,1.7196086018494583,0.10625873025343559,0.1051947610641654
0.2701331612966448,0.3379194976175797,0.05244452305239954,0.0066337755697362015,65.00225642756837,-27.721838087898167,115.14318040730437,0.03444457056642166,1.55,16.299835075129252,1.7365427095240085,0.10874295826789193,0.10613708875253595
0.27476534438128275,0.33713242720745157,0.05518227646366395,0.006787432336764301,65.81758584777644,-27.634588553049948,115.14868311087159,0.034364406683086275,1.6,16.313341733194083,1.7534386844048875,0.11136518442051191,0.10707386853262228
0.27937800700842985,0.33632099912611163,0.05789716279083155,0.006949037067673962,66.63359639111663,-27.546495203295695,115.1543203479382,0.03428176148479807,1.65,16.327080000413147,1.77029530576526,0.1141242982436951,0.1080050076425432
0.2839705882576117,0.3354852719988859,0.060588529795520714,0.007118491196373137,67.45029961364604,-27.457560036758526,115.16009893430386,0.03419664090157443,1.7,16.341048900763568,1.7871113557215654,0.11701915638323668,0.10893041478713361
0.2885425295524069,0.3346253062066957,0.06325573088975397,0.007295693926660524,68.26770702191953,-27.36778511238245,115.16602562778527,0.03410905104133082,1.75,16.355247430176448,1.8038856193215098,0.12004858287301272,0.10985000015287252
0.29309327472805297,0.33374116388169556,0.06589812529129763,0.007480542282351153,69.0858300715903,-27.277172549783618,115.17210712659254,0.03401899818946677,1.8,16.36967455665407,1.8206168846318447,0.12321136941750041,0.11076367542200834
0.2976222700987595,0.33283290890278366,0.06851507817760649,0.007672931158091269,69.9046801660164,-27.185724529097172,115.17835006772003,0.03392648880843957,1.85,16.38432922039047,1.8373039428259295,0.1265062756820653,0.11167135378588015
0.30212896452472277,0.33190060689098727,0.07110596083833712,0.007872753370823838,70.72426865487355,-27.09344329081975,115.18476102535186,0.03383152953732585,1.9,16.399210333895407,1.8539455882710687,0.12993202959094563,0.11257294995743525
0.3066128094788324,0.3309443252047211,0.07367015082639228,0.0080798997118658,71.54460683277398,-27.00033113564758,115.19134650928245,0.033734127191370866,1.95,16.414316782121645,1.8705406186156182,0.13348732763286247,0.11346838018294332
0.31107325911306294,0.32996413293492116,0.07620703210746102,0.008294258999558256,72.36570593789192,-26.906390424310295,115.19811296335263,0.033634288761525646,2.0,16.429647422595586,1.8870878348758542,0.13717083517418208,0.11435756225290894
0.3155097703245411,0.3289601009000524,0.07871599520801792,0.008515718132450674,73.18757715059559,-26.811623577400333,115.20506676390147,0.03353202141397195,2.05,16.44520108555124,1.9035860415226002,0.14098118677955512,0.11524041551218402
0.31992180282128213,0.32793230164099263,0.08119643736174609,0.008744162142980365,74.01023159208606,-26.71603307519808,115.21221421823446,0.033427332489635087,2.1,16.460976574067466,1.920034046567603,0.14491698653995602,0.11611686086928336
0.32430881918758586,0.3268808094157912,0.0836477626543489,0.008979474251608423,74.83368032304296,-26.61962145749265,115.21956156310816,0.03332022950368461,2.15,16.47697266420853,1.9364306616496525,0.14897680840804334,0.11698682080490616
0.328670284949086,0.32580570019430394,0.08606938216671564,0.009221535921373546,75.65793434227737,-26.522391323398395,115.22711496323188,0.03321072014502281,2.2,16.49318810516791,1.952774702120442,0.1531591965407608,0.11785021937966805
0.3330056686374434,0.3247070516527045,0.08846071411640632,0.009470226912825258,76.48300458539195,-26.42434533116713,115.23488050978663,0.03309881227576122,2.25,16.509621619415363,1.9690649871301573,0.15746266564909658,0.11870698224104767
0.3373144418546767,0.32358494316787206,0.09082118399742234,0.009725425339298264,77.30890192344853,-26.32548619799606,115.24286421896174,0.03298451393068489,2.3,16.526271902847235,1.9853003397127926,0.1618857013549169,0.11955703662955344
0.34159607933712133,0.3224394558116566,0.09315022471822848,0.009987007722489921,78.13563716164322,-26.22581669983146,115.25107203050948,0.03286783331670473,2.35,16.54313762493997,2.001479586871186,0.166426760554788,0.12040031138411632
0.34585005901901056,0.3212706723450212,0.09544727673799425,0.010254849048303004,78.96322103798938,-26.125339671168135,115.25950980631812,0.03274877881229767,2.4,16.560217428906824,2.017601559661769,0.17108427179069943,0.12123673694671483
0.35007586209566965,0.320078677212063,0.09771178820102056,0.01052882282291632,79.7916642220085,-26.024058004844616,115.26818332900358,0.032627358966934895,2.45,16.577509931857776,2.03366509327902,0.17585663562759915,0.1220662453662392
0.3542729730863161,0.3188635565339118,0.09994321506932069,0.010808801129046057,80.62097731342901,-25.92197465183415,115.27709830052021,0.032503582500497966,2.5,16.59501372496256,2.049669027139623,0.18074222503765017,0.12288877030160252
0.35844087989645823,0.31762539810250795,0.10214102125332267,0.011094654682361033,81.4511708408935,-25.8190926210315,115.28626034079093,0.03237745830268302,2.55,16.612727373616874,2.065612204966319,0.1857393857911162,0.12370424702410672
0.3625790738798843,0.31636429137425953,0.10430467874066207,0.011386252888015532,82.2822552606742,-25.715414979035558,115.29567498635706,0.032248995432392964,2.6,16.630649417611696,2.0814934748714444,0.19084643685378233,0.12451261241907179
0.36668704990023565,0.3150803274635791,0.10643366772303475,0.011683463897263744,83.11424095539715,-25.61094484992777,115.30534768904818,0.03211820311711772,2.65,16.648778371305692,2.0973116894401573,0.19606167079081543,0.1253138049867375
0.37076430639215474,0.31377359913630076,0.10852747672107801,0.01198615466412035,83.94713823277482,-25.505685415046432,115.31528381467237,0.03198509075230254,2.7,16.667112723800702,2.1130657058133364,0.20138335417696718,0.12610776484244726
0.3748103454220024,0.31244420080297763,0.11058560270725129,0.012294191002032207,84.78095732434784,-25.399639912756843,115.32548864172712,0.03184966790070436,2.75,16.68565093912031,2.1287543857701516,0.20680972801302108,0.12689443371612347
0.3788246727481357,0.311092228512061,0.11260755122668584,0.012607437640526742,85.61570838423563,-25.292811638217334,115.33596736013115,0.031711944291736405,2.8,16.704391456391413,2.1443765958103005,0.21233900814838363,0.1276737549510455
0.38280679788073996,0.30971777994296074,0.11459283651597543,0.01292575828180299,86.45140148789613,-25.18520394314118,115.34672506997761,0.03157192982080078,2.85,16.72333269002882,2.1599312072359034,0.21796938570971794,0.12844567350194075
0.3867562341412073,0.30832095439898816,0.11654098161987847,0.013249015657232006,87.28804663089493,-25.076820235554457,115.35776678030874,0.03142963454860932,2.9,16.742473029922856,2.1754170962330512,0.2236990275355167,0.12921013593239986
0.39067249872105375,0.3069018528001811,0.11845151850590421,0.013577071583733814,88.12565372768374,-24.967663979549805,115.36909740791253,0.03128506870049263,2.95,16.761810841629917,2.1908331439530007,0.22952607661651064,0.12996709041162782
0.3945551127403703,0.3054605776760129,0.12032398817675541,0.013909787019998735,88.96423261038865,-24.857738695036154,115.3807217761415,0.03113824266569726,3.0,16.78134446656597,2.2061782365930096,0.23544865254180586,0.13071648671054306
0.3984036013057975,0.3039972331579842,0.12215794078060027,0.014247022122521548,89.80379302760788,-24.74704795748441,115.39264461375382,0.030989166996671234,3.05,16.801072222202986,2.2214512654768104,0.24146485195064363,0.13145827619723643
0.40221749356801895,0.3025119249720999,0.12395293571914681,0.014588636301417608,90.64434464321967,-24.63559539766912,115.40487055377733,0.030837852408337772,3.1,16.820992402268278,2.2366511271347096,0.24757274898967363,0.13219241183180275
0.40599632277876607,0.3010047604312303,0.12570854175349502,0.014934488275990743,91.48589703520004,-24.523384701406172,115.41740413239647,0.030684309777357376,3.15,16.84110327694668,2.2517767233833146,0.253770395775631,0.13291884816055818
0.4097396263473269,0.29947584842735786,0.1274243371077395,0.015284436130023343,92.32845969445084,-24.410419609286468,115.43024978786244,0.03052855014137817,3.2,16.861403093085617,2.266826961404876,0.26005582286330575,0.13363754130965583
0.41344694589655256,0.2979252994237098,0.12909990957029935,0.015638337366759913,93.17204202363806,-24.29670391640569,115.44341185942699,0.0303705846982747,3.25,16.881890074402982,2.281800753826244,0.26642703971869275,0.13434844897811365
0.4171178273183543,0.29635322544677706,0.13073485659294987,0.015996048963556,94.01665333604058,-24.182241472090098,115.45689458629988,0.030210424805375027,3.3,16.90256242169781,2.29669701879743,0.2728820351972077,0.13505153043026805
0.42075182082868434,0.29475974007822076,0.13232878538753287,0.016357427426165104,94.8623028544096,-24.06703617961842,115.47070210663048,0.030048081978676356,3.35,16.923418313063728,2.311514680069769,0.2794187780268552,0.1357467464876666
0.42434848102199496,0.2931449584466655,0.13388131302032227,0.016722328842637045,95.70899970983884,-23.951091995939834,115.48483845651356,0.029883567892048997,3.4,16.944455904105162,2.3262526670736796,0.2860352172962319,0.1364340595204149
0.42790736692516673,0.2915089972193817,0.13539206650402183,0.017090608936801935,96.55675294064537,-23.83441293138809,115.49930756901965,0.029716894376428948,3.45,16.96567332815626,2.340909914996013,0.292729282947248,0.13711343343799065
0.43142804205090257,0.2898519745938565,0.13686068288737382,0.01746212312131475,97.40557149126184,-23.717003049391767,115.51411327325013,0.02954807341899891,3.5,16.98706869650252,2.3554853648569822,0.2994988862724491,0.1377848336795401
0.4349100744505784,0.28817401028925366,0.1382868093423561,0.0178367265502362,98.25546421113954,-23.598866466180674,115.52925929341737,0.029377117162357937,3.55,17.008640098605063,2.369977963586675,0.3063419204168178,0.1384482272036711
0.4383530367665459,0.28647522553776433,0.13967010324894752,0.018214274171126487,99.10643985366286,-23.48000735048848,115.54474924794988,0.029204037903679623,3.6,17.03038560232759,2.3843866641011378,0.3132562608839356,0.13910358247775756
0.4417565062838798,0.2847557430758478,0.14101023227744058,0.018594620776629222,99.9585070750752,-23.360429923251502,115.56058664862314,0.02902884809385898,3.65,17.052303254165917,2.398710425378026,0.320239766046383,0.13975086946676954
0.4451200649815641,0.28301568713536396,0.14230687446828214,0.018977621055523773,100.81167443341634,-23.240138457303757,115.57677489971582,0.02885156033664798,3.7,17.07439107948011,2.4129482125318185,0.32729027766025504,0.14039005962164453
0.4484432995831109,0.2812551834345976,0.1435597183094227,0.019363129643224893,101.66595038747157,-23.119137277068248,115.59331729719192,0.02867218738777979,3.75,17.09664708272919,2.4270989968885868,0.33440562138366914,0.14102112586721435
0.4517258016066062,0.2794743591691753,0.14476846281115557,0.019751001171709505,102.5213432957325,-22.997430758244523,115.61021702790899,0.028490742154081813,3.8,17.119069247708346,2.4411617560603167,0.3415836072991403,0.14164404258970262
0.4549671674141744,0.2776733430028755,0.14593281757842821,0.02014109031885114,103.37786141536994,-22.875023327492546,115.62747716885247,0.02830723769257747,3.85,17.141655537788676,2.4551354740187756,0.34882203043969806,0.1422587856238078
0.45816699826085944,0.27585226505833277,0.14705250288060828,0.02053325185714365,104.23551290121863,-22.751919462112852,115.64510068639642,0.028121687209576886,3.9,17.164403896159385,2.4690191411689195,0.35611867131861946,0.14286533223938716
0.46132490034291285,0.27401125690763656,0.1481272497186876,0.02092734070179628,105.09430580477442,-22.628123689723083,115.66309043559095,0.027934104059756423,3.95,17.187312246072427,2.482811754421836,0.36347129646264986,0.1434636611277559
0.46444048484548517,0.27215045156282475,0.1491567998899078,0.02132321195818324,105.95424807320347,-22.503640587930857,115.68144915947622,0.027744501745227128,4.0,17.21037849108957,2.496512317267218,0.37087765894858427,0.14405375238761742
0.46751336798971377,0.2702699834662741,0.15014090604979236,0.021720720968631736,106.81534754836402,-22.378474784003043,115.7001794884235,0.027552893914592227,4.05,17.233600515331844,2.510119839845359,0.37833549894307966,0.14463558751063846
0.4705431710792022,0.2683699884809866,0.15107933177156987,0.022119723358533187,107.6776119658406,-22.252630954531444,115.71928393950323,0.027359294361993556,4.1,17.25697618373133,2.523633339018673,0.3858425442455693,0.1452091493666854
0.47352952054588515,0.26645060388077335,0.15197185160297452,0.02252007508176308,108.54104895399102,-22.126113825094908,115.73876491588022,0.027163717026147137,4.15,17.28050334228529,2.5370518384427223,0.3933965108341478,0.14577442218873538
0.4764720479952731,0.2645119683403369,0.15281825112040973,0.02292163246539599,109.40566603300597,-21.99892816991792,115.75862470623645,0.02696617598936783,4.2,17.304179818312583,2.550374368636761,0.4009951034142965,0.14633139155747765
0.4793703902510717,0.2625542219252517,0.15361832698046265,0.023324252253702864,110.27147061398159,-21.87107881152566,115.77886548422106,0.026766685476583143,4.25,17.328003420712346,2.5635999670537775,0.408636015970317,0.14688004438562
0.4822241893991704,0.26057750608184455,0.15437188696875617,0.0237277916514185,111.13846999800502,-21.742570620395565,115.7994893079283,0.02656525985433631,4.3,17.3519719402249,2.57672767815004,0.41631693231934014,0.14742036890191415
0.4850330928309945,0.25858196362697516,0.15507875004612784,0.02413210836626822,112.00667137525302,-21.61340851460546,115.82049811940297,0.0263619136297786,4.35,17.376083149694857,2.5897565534541322,0.42403552666777794,0.14795235463491535
0.48779675328621597,0.2565677387377181,0.15573874639212312,0.024537060650743066,112.8760818241038,-21.48359745947822,115.84189374417392,0.026156661449651005,4.4,17.400334804336406,2.602685651635481,0.43178946417008435,0.1484759923964903
0.49051482889481807,0.25453497694094523,0.1563517174457946,0.024942507343114092,113.74670831026224,-21.353142467223023,115.86367789081541,0.02594951809925519,4.45,17.42472464200072,2.6155140385723668,0.4395764014896905,0.14899127426508743
0.4931869832185074,0.2524838251028122,0.1569175159437949,0.02534830790767682,114.61855768589838,-21.222048596573227,115.88585215053669,0.02574049850141403,4.5,17.44925038344546,2.628240787419414,0.44739398736198027,0.14949819356878416
0.4958128852914702,0.2504144314181469,0.15743600595575644,0.02575432247421775,115.49163668879967,-21.09032095242088,115.90841799679973,0.025529617715421515,4.55,17.473909732606383,2.640864978674555,0.45523986315917003,0.1499967448681244
0.49839220966046627,0.248326945399743,0.1579070629169477,0.026160411876695697,116.36595194153661,-20.95796468544788,115.93137678496512,0.0253168909359823,4.6,17.498700376870957,2.653385700245462,0.46311166345695787,0.1504869239387607
0.5009246364242567,0.24622151786755725,0.15833057365819955,0.026566437691131258,117.24150995064223,-20.82498499175386,115.95472975196662,0.025102333492140767,4.65,17.52361998735398,2.665802047515449,0.47100701660280525,0.15096872775391465
0.5034098512723602,0.24409830093781296,0.15870643643309348,0.026972262272698725,118.11831710580546,-20.69138711248075,115.97847801601384,0.024885960846199824,4.7,17.548666219175196,2.678113123408827,0.47892354528571524,0.15144215446666845
0.5058475455231338,0.24195744801200966,0.15903456094240567,0.02737774879201514,118.99637967907832,-20.55717633343414,116.00262257632367,0.0246677885926294,4.75,17.573836711738814,2.6903180384557177,0.4868588671073699,0.15190720339210145
0.5082374161611735,0.23979911376583998,0.1593148683558011,0.027782761270622264,119.87570382409716,-20.42235798470134,116.02716431288022,0.024447832456964753,4.8,17.59912908901497,2.702415910856318,0.4948105951544902,0.15236387498928453
0.5105791658740271,0.23762345413801436,0.1595472913307719,0.028187164615657633,120.7562955753181,-20.286937440266318,116.05210398622339,0.024226108294694605,4.85,17.62454095982303,2.71440586654461,0.5027763385722803,0.15281217084314516
0.5128725030882216,0.23543062631899445,0.1597317740288163,0.028590824653711853,121.63816084726659,-20.150920117621414,116.07744223726617,0.024002632090139208,4.9,17.65006991811673,2.7262870392515106,0.510753703138819,0.15325209364621611
0.5151171420045938,0.23322078873963628,0.15986827212885346,0.028993608163869526,122.52130543380129,-20.01431147737594,116.10317958714066,0.02377741995531839,4.95,17.675713543271144,2.7380585705674605,0.5187402918402598,0.15368364718027958
0.5173128026329232,0.23099410105974372,0.1599567528378714,0.029395382909932415,123.40573500739235,-19.877117022861643,116.12931643707283,0.023550488128809666,5.0,17.701469400371373,2.7497196100044423,0.5267337054467025,0.1541068362979198
0.519459210825864,0.22875072415653294,0.15999719489880534,0.029796017671823598,124.2914551184142,-19.739342299735096,116.15585306828622,0.023321852974596432,5.05,17.727335040503018,2.7612693150574295,0.534731543088596,0.1545216669039954
0.5215560983121681,0.22649082011300942,0.15998958859564472,0.030195382276172307,125.1784711944529,-19.60099289557703,116.18278964193426,0.02309153098090639,5.1,17.75330800104431,2.772706851265256,0.5427314028335363,0.15492814593704402
0.5236032027292002,0.22421455220625713,0.15993393575576723,0.03059334762607964,126.066788539628,-19.462074439488624,116.21012619906169,0.02285953875904019,5.15,17.77938580595992,2.7840313922709066,0.5507308822633185,0.1553262813506299
0.5256002676547376,0.22192208489564225,0.15983024974950003,0.030989785730065906,126.9564123339294,-19.32259260168482,116.23786266059454,0.02262589304219044,5.2,17.805565966096378,2.7952421198812196,0.5587275790511068,0.15571608209464638
0.5275470426380499,0.21961358381093068,0.1596785554869073,0.03138456973020103,127.8473476325688,-19.18255309308464,116.2659988273593,0.022390610684251078,5.25,17.831845979479116,2.8063382241260015,0.5667190915385818,0.15609755809658413
0.5294432832302602,0.21728921574032156,0.15947888941180607,0.031777573929419975,128.73959936534604,-19.041961664898572,116.29453438013059,0.02215370865861724,5.3,17.85822333161102,2.817318903316548,0.5747030193129271,0.15647072024277606
0.5312887510139774,0.21494914861839695,0.15923129949301046,0.03216867381802565,129.6331723360306,-18.90082410821307,116.32346887970799,0.02191520405697571,5.35,17.884695495772533,2.828183364103564,0.5826769637835174,0.15683558035962897
0.5330832136322013,0.2125935515139884,0.1589358452128076,0.032557746099382306,130.528071221758,-18.759146253572116,116.35280176702153,0.021675114088085923,5.4,17.911259933323233,2.8389308215344835,0.5906385287581679,0.15719215119485302
0.5348264448164932,0.2102225946179621,0.1585925975526671,0.032944668714803116,131.4243005724412,-18.616933970555998,116.38253236326597,0.021433456076551748,5.45,17.937914094004842,2.849560499110183,0.5985853210188083,0.1575404463986985
0.5365182244144122,0.20783644923092234,0.15820163897618836,0.03332932086763574,132.3218648101975,-18.474193167357218,116.41265987006385,0.021190247461584003,5.5,17.964655416245666,2.860071628841081,0.6065149508964417,0.1578804805052098
0.5381583384162106,0.2054352877508353,0.1577630634092889,0.03371158304655071,133.2207682287903,-18.330929790353622,116.44318336965739,0.02094550579575386,5.55,17.991481327466385,2.8704634513026273,0.6144250328452511,0.15821226891350643
0.5397465789807869,0.20301928366057354,0.1572769762176391,0.03409133704803738,134.12101499308665,-18.1871498236788,116.47410182512891,0.020699248743737207,5.6,18.018389244387194,2.880735215690169,0.6223131860157155,0.1585358278690998
0.541282744460893,0.20058861151538152,0.15674349418134867,0.03446846599811298,135.02260913852973,-18.042859288789717,116.50541408064997,0.02045149408105,5.65,18.045376573336235,2.8908861798731977,0.6301770348265975,0.15885117444525557
0.5427666394275927,0.19814344693026437,0.15616274546691084,0.034842854373250666,135.92555457062713,-17.898064244031666,116.53711886175903,0.020202259692774744,5.7,18.072440710559277,2.900915610448967,0.6380142095356649,0.15915832652440942
0.5441980746939681,0.1956839665672998,0.15553486959641086,0.035214388020532936,136.8298550644544,-17.752770784200553,116.56921477566763,0.019951563572278192,5.75,18.099579042530657,2.91082278279548,0.6458223468090104,0.1594573027796455
0.5455768673380708,0.19321034812287396,0.15486001741400654,0.0355829541770368,137.7355142641743,-17.606985040102572,116.60170031159508,0.019699423819920278,5.8,18.126788946265354,2.920606981123845,0.6535990902888309,0.1597481226562455
0.5469028407251162,0.1907227703148436,0.1541383510496887,0.03594844148845825,138.64253568257172,-17.460713178111224,116.63457384113129,0.019445858641754493,5.85,18.154067789632258,2.9302674985299886,0.6613420911595312,0.16003080635331599
0.5481758245289179,0.18822141286962327,0.15337004388033018,0.03631074002698293,139.55092270060425,-17.31396139972183,116.66783361862807,0.01919088634821964,5.9,18.181412931668515,2.9398036370457308,0.6690490087120157,0.16030537480550286
0.5493956547525576,0.18570645650920017,0.1525552804880329,0.03666974130841123,140.4606785669683,-17.166735941103457,116.70147778161852,0.018934525352823178,5.95,18.20882172289496,2.949214707689212,0.6767175109060322,0.16057184966479868
0.5505621737482922,0.18317808293807733,0.15169425661578287,0.0370253383085457,141.3718063976815,-17.019043072648362,116.73550435126444,0.01867679417081619,6.0,18.23629150563259,2.958500030514672,0.6843452749304338,0.1608302532824517
0.5516752302366902,0.18063647483014542,0.1507871791204238,0.03737742547884909,142.2843091756803,-16.870889098518955,116.76991123283173,0.018417711417860135,6.05,18.263819614320003,2.967658934661576,0.6919299877612229,0.16108060869098273
0.5527346793250014,0.17808181581548466,0.1498342659229611,0.03772589876138209,143.1981897504341,-16.72228035619234,116.80469621619369,0.018157295808685334,6.1,18.291403375831838,2.976690758403083,0.6994693467172441,0.16132293958631647
0.5537403825247512,0.1755142904670976,0.14883574595620688,0.03807065560302934,144.11345083757485,-16.573223216002415,116.83985697636196,0.017895566155741446,6.15,18.319040109798088,2.9855948491938573,0.7069610600133922,0.16155727031003436
0.5546922077685627,0.17293408428757376,0.14779185910978035,0.038411594969023286,145.0300950185429,-16.423724080679637,116.87539107404508,0.017632541367839923,6.2,18.346727128924325,2.994370563717212,0.7144028473112025,0.16178362583175449
0.5555900294262007,0.17034138369568716,0.14670285617247525,0.03874861735577525,145.94812474024883,-16.273789384888417,116.91129595623454,0.017368240448788593,6.25,18.374461739312753,3.0030172679315905,0.7217924402666915,0.1620020317316451
0.5564337283198395,0.16773637601292768,0.1455689987720092,0.03908162480302339,146.86754231475123,-16.123425594762217,116.94756895681809,0.017102682496018443,6.3,18.402241240784065,3.011534337116375,0.7291275830753153,0.16221251418307686
0.5572231917385478,0.1651192494499674,0.14439055931216896,0.039410520905307694,147.78834991895084,-15.972639207436384,116.98420729722031,0.01683588669920275,6.35,18.43006292720006,3.019921155917021,0.7364060330139158,0.16241509993541994
0.557958313451994,0.16249019309306187,0.14316782090736638,0.039735210822781905,148.71054959430052,-15.82143675057872,117.02120808707014,0.01656787233886852,6.4,18.457924086786985,3.0281771183895194,0.7436255609795243,0.16260981629699073
0.5586389937233662,0.1598493968903893,0.1419010773146219,0.04005560129137291,149.63414324653166,-15.669824781917878,117.05856832489525,0.01629865878500058,6.45,18.485822002459585,3.0363016280441726,0.7507839520248926,0.16279669111815315
0.5592651393215079,0.15719705163832653,0.14059063286299073,0.04037160063229803,150.5591326453968,-15.517809888769557,117.09628489884314,0.01602826549563815,6.5,18.513753952145752,3.044294097888692,0.7578790058906236,0.16297575277457987
0.559836663532267,0.15453334896766424,0.13923680238044914,0.04068311876095081,151.48551942442825,-15.365398687560575,117.13435458742875,0.015756712015464223,6.55,18.541717209111827,3.0521539504706086,0.7649085375337732,0.1631470301506774
0.5603534861690561,0.15185848132976174,0.1378399111182587,0.04099006719516616,152.41330508071326,-15.212597823350835,117.17277406030841,0.01548401797438774,6.6,18.56970904228844,3.0598806179189917,0.7718703776527956,0.16331055262317962
0.5608155335826244,0.1491726419826422,0.13640029467282616,0.0412923590628758,153.34249097468538,-15.059413969353223,117.21153987907995,0.015210203086118661,6.65,18.597726716596892,3.0674735419854797,0.7787623732087086,0.16346635004491378
0.5612227386700384,0.14647602497703016,0.13491829890507803,0.041589909109164956,154.2730783299322,-14.90585382645147,117.25064849810873,0.014935287146736129,6.7,18.625767493276022,3.0749321740846116,0.7855823879423499,0.16361445272874306
0.5615750408828709,0.14376882514233114,0.13339427985736915,0.04188263370274149,155.20506823301935,-14.751924122716018,117.29009626537949,0.014659290033249728,6.75,18.653828630209524,3.0822559753334633,0.7923283028876038,0.16375489143168898
0.5618723862345987,0.14105123807255568,0.1318286036679452,0.042170450841828744,156.13846163333093,-14.597631612917915,117.3298794233737,0.014382231702154044,6.8,18.68190738225367,3.0894444165905797,0.7989980168804722,0.1638876973392375
0.5621147273072049,0.13832346011218738,0.1302216464829799,0.04245328015949318,157.07325934292643,-14.442983078040795,117.36999410997231,0.014104132187976529,6.85,18.7100010015654,3.0964969784942076,0.8055894470638695,0.1640129020498318
0.5623020232569884,0.13558568834199722,0.1285737943662075,0.042731042928418464,158.00946203641385,-14.287985324790945,117.41043635938361,0.013825011601818885,6.9,18.73810673793076,3.103413151499817,0.8121005293880185,0.16413053755955487
0.5624342398195782,0.13283812056480465,0.12688544320617298,0.04300366206513712,158.94707025083946,-14.132645185105527,117.45120210309598,0.01354489012989203,6.95,18.76622183909361,3.110192435916917,0.8185292191063288,0.1642406362470049
0.562511349314151,0.13008095529118646,0.12515699862112162,0.043271062133731344,159.88608438559393,-13.976969515658975,117.4922871708553,0.01326378803204477,7.0,18.79434355108459,3.116834341945157,0.8248734912666374,0.16434323085836586
0.5625333306468547,0.12731439172513426,0.12338887586155114,0.04353316934901435,160.8265047023348,-13.820965197367602,117.53368729166692,0.012981725640286245,7.05,18.8224691185503,3.1233383897097164,0.8311313411976935,0.16443835449267596
0.5625001693134334,0.12453862974966218,0.12158149971045001,0.04378991157920378,161.7683313249256,-13.664639134892461,117.57539809482164,0.01269872335730236,7.1,18.850595785082643,3.129704109295973,0.8373007849907711,0.16452604058729609
0.5624118574010563,0.12175386991236546,0.1197353043812451,0.04404121834809864,162.71156423939138,-13.507998256140475,117.61741511094581,0.012414801654966237,7.15,18.878720793548315,3.135931040783456,0.8433798599762936,0.16460632290358068
0.5622683935893508,0.11896031341093108,0.11785073341348401,0.044287020836771135,163.65620329389054,-13.351049511763911,117.6597337730751,0.012129981072842862,7.2,18.906841386418368,3.142018734279074,0.8493666251953559,0.16467923551275246
0.5620697831506359,0.11615816207860097,0.11592823956627718,0.04452725188478496,164.60224819870345,-13.193799874658193,117.70234941775163,0.011844282216687945,7.25,18.934954806097835,3.147966749949621,0.8552591618660301,0.16474481278198314
0.5618160379493611,0.11334761836959,0.11396828470952414,0.04476184599095136,165.54969852623728,-13.036256339458113,117.7452572861444,0.011557725756941285,7.3,18.963058295255365,3.153774658053551,0.861055573844344,0.16480308936068155
0.5615071764407454,0.1105288853444584,0.11197133971295198,0.044990739313634454,166.4985537110475,-12.878425922032473,117.7884525251925,0.011270332427214563,7.35,18.99114909715283,3.1594420389720304,0.8667539880798202,0.16485410016699076
0.5611432236686226,0.10770216665544129,0.10993788433299087,0.04521386967061696,167.4488130498757,-12.720315658977192,117.83193018877112,0.01098212302277388,7.4,19.019224455974868,3.164968483239253,0.8723525550654678,0.16489788037449518
0.5607242112624862,0.10486766653173421,0.107868407097515,0.045431176538537815,168.40047570170404,-12.56193260710691,117.87568523887983,0.010693118399016955,7.45,19.047281617158298,3.170353591572025,0.8778494492821174,0.16493446539913906
0.5602501774337413,0.10202558976473808,0.10576340518847602,0.04564260105191267,169.353540687826,-12.403283842945143,117.91971254685281,0.010403339469945297,7.5,19.07531782772142,3.1755969748986117,0.8832428696369932,0.16496389088635696
0.5597211669711579,0.09917614169326294,0.10362338432245766,0.045848086001748556,170.30800689193387,-12.244376462213006,117.96400689459115,0.010112807206631363,7.55,19.103330336593107,3.1806982543868485,0.888531039896417,0.16498619269841758
0.5591372312355317,0.09631952818869256,0.10144885862917949,0.046047575833763676,171.26387306022224,-12.085217579316549,118.00856297581637,0.00982154263568087,7.6,19.131316394941663,3.185657061471512,0.8937122091125399,0.16500140690198106
0.5584984281535467,0.09345595564010996,0.09924035052798,0.04624101664622335,172.22113780150838,-11.925814326832738,118.05337539734529,0.009529566837690339,7.65,19.15927325650344,3.1904730378809463,0.8987846520439988,0.16500956975587036
0.5578048222108467,0.09058563093938606,0.09699839060230761,0.04642835618740283,173.17979958736873,-11.76617385499414,118.09843868038566,0.009236900945700066,7.7,19.187198177911117,3.195145835662952,0.9037466695703978,0.16501071769905773
0.5570564844443127,0.08770876146623192,0.09472351747225072,0.04660954385268799,174.13985675229205,-11.606303331172318,118.14374726185243,0.008943566143642619,7.75,19.215088419021658,3.1996751172099214,0.9085965891005132,0.16500488733886548
0.5562534924335479,0.08482555507321546,0.09241627766513669,0.0467845306813242,175.10130749384868,-11.446209939359989,118.1892954957043,0.008649583664786934,7.8,19.242941243243873,3.204060555283233,0.9133327649741257,0.16499211543938225
0.5553959302915717,0.08193622007074451,0.09007722548423155,0.04695326935282434,176.0641498728764,-11.285900879651985,118.23507765430008,0.008354974790178278,7.85,19.27075391786555,3.2083018330368938,0.9179535788573826,0.1649724389100941
0.5544838886547236,0.07904096521201603,0.08770692287557091,0.04711571418304593,177.02838181368256,-11.125383367725053,118.2810879297748,0.008059760847073995,7.9,19.29852371438013,3.212398644040431,0.9224574401315941,0.16494589479473068
0.5535174646717786,0.07613999967793414,0.08530593929295549,0.047271821119947995,177.9940011042624,-10.964664634316517,118.32732043543497,0.007763963207375409,7.95,19.326247908812867,3.216350692301032,0.9268427862753726,0.16491252026032593
0.5524967619922745,0.07323353306199673,0.08287485156114235,0.047421547739037596,178.96100539653386,-10.803751924701867,118.37376920717286,0.007467603286055828,8.0,19.353923782046458,3.2201576922849284,0.9311080832400204,0.16487235258649363
0.551421890754054,0.07032177535515242,0.0804142437372655,0.04756485323851624,179.9293922065887,-10.642652498171293,118.42042820489931,0.007170702539584859,8.05,19.38154862014607,3.2238193689380283,0.9352518258180775,0.16482542915491658
0.550292967570021,0.06740493693062911,0.07792470697051945,0.047701698434135804,180.89915891495943,-10.481373627505198,118.46729131399488,0.006873282464349196,8.1,19.409119714683772,3.227335457705786,0.9392725380049408,0.16477178743904952
0.5491101155141155,0.06448322852873384,0.07540683936013748,0.0478320457537739,181.87030276690308,-10.319922598448745,118.51435234677884,0.006575364595069865,8.15,19.43663436306227,3.2307057045523173,0.9431687733534668,0.16471146499403486
0.5478734641065054,0.061556861241627826,0.07286124581170228,0.04795585923173822,182.84282087270057,-10.158306709185467,118.56160504399571,0.006276970503216339,8.2,19.464089868837977,3.233929865978754,0.9469391153214737,0.16464449944683054
0.5465831492980002,0.05862604649807476,0.07028853789181974,0.04807310450280918,183.8167102079726,-9.996533269809978,118.60904307631905,0.005978121795417344,8.25,19.4914835420433,3.237007709040835,0.9505821776120588,0.1645709284865496
0.5452393134536869,0.055690996048164625,0.06768933368119281,0.04818374879603023,184.79196761401138,-9.834609601799814,118.65666004587202,0.005678840111868635,8.3,19.518812699508203,3.2399390113657387,0.9540966045066498,0.16449078985500976
0.5438421053357896,0.052751921948015985,0.06506425762613122,0.04828776092825494,185.76858979812863,-9.672543037486466,118.70444948776445,0.005379147124738031,8.35,19.54607466518089,3.242723561168147,0.9574810711907095,0.1644041213374929
0.5423916800857556,0.049809036544453754,0.06241394038853038,0.048385111297459635,186.74657333401936,-9.510340919525625,118.75240487164602,0.005079064536567453,8.4,19.573266770447677,3.2453611572655476,0.960734284072016,0.16431096075371304
0.5408881992055716,0.04686255245966832,0.059739018694358846,0.04847577187583072,187.72591466214186,-9.348010600366667,118.8005196032751,0.0047786140786725785,8.45,19.600386354451967,3.2478516090927703,0.9638549810914425,0.1642113459489915
0.5393318305383088,0.04391268257585323,0.05704013518068749,0.048559716202634814,188.70661009011346,-9.185559441721455,118.84878702610305,0.004477817509539844,8.5,19.627430764412246,3.2501947367157538,0.9668419320261604,0.16410531478563847
0.5377227482479019,0.04095964001982408,0.05431793824129865,0.048636919376880576,189.68865579312222,-9.02299481403245,118.89720042287333,0.0041766966132211055,8.55,19.65439735593916,3.2523903708445463,0.9696939387851948,0.16399290513453946
0.5360611327981647,0.03800363814762127,0.05157308187091356,0.048707358049780214,190.6720478143545,-8.860324095940197,118.94575301723538,0.0038752731977262393,8.6,19.681283493351554,3.2544383528455376,0.9724098356972598,0.16387415486694532
0.5343471709310424,0.03504489052909388,0.048806225508072364,0.048771010417018826,191.65678206543805,-8.697554673750236,118.99443797537258,0.0035735690934134323,8.65,19.708086549991464,3.256338534752919,0.9749884897908054,0.16374910184646466
0.5325810556441062,0.03208361093247044,0.04601803387670785,0.04882785621083963,192.64285432690127,-8.534693940899428,119.043248407644,0.0032716061513777743,8.7,19.734803908538016,3.2580907792793736,0.9774288010662091,0.16361778392125698
0.53076298616729,0.02912001330891378,0.04320917682644849,0.048877876691952614,193.63026024864774,-8.371749297421795,119.09217737023965,0.002969406241837896,8.75,19.76143296132022,3.259694959825997,0.9797297027600445,0.16348023891642516
0.5288931679388751,0.026154311777062726,0.04038032917168979,0.04892105464127423,194.61899535044645,-8.208728149413858,119.14121786684869,0.0026669912525209513,8.8,19.787971110628586,3.2611509604914426,0.9818901616013669,0.16333650462660573
0.5269718125807225,0.023186720607563174,0.037532170529474364,0.04895737435150564,195.60905502243781,-8.045637908499565,119.19036285034024,0.0023643830870462334,8.85,19.81441576902553,3.262458676080296,0.9839091780599514,0.1631866188087554
0.5249991378727586,0.020217454207585885,0.03466538515621639,0.04898682161855659,196.60043452565483,-7.88248599129479,119.2396052244564,0.002061603663307179,8.9,19.840764359654568,3.263618012110674,0.9857857865864251,0.163030619175132
0.5229753677267169,0.017246727105336777,0.03178066178331259,0.04900938373282192,197.5931289925599,-7.719279818871497,119.28893784551717,0.0017586749118523742,8.95,19.867014316548204,3.2646288848210534,0.9875190558442359,0.16286854338646853
0.5209007321591357,0.014274753934556862,0.028878693451678004,0.04902504947031767,198.58713342759697,-7.5560268162215625,119.33835352413662,0.0014556187742652965,9.0,19.89316308493454,3.2654912211763203,0.9891080889334015,0.16270042904533807
0.51877546726362,0.011301749419014595,0.025960177345245798,0.04903380908368337,199.5824427077589,-7.392734411720329,119.38784502695012,0.0011524572015431046,9.05,19.919208121542496,3.266204958873048,0.9905520236059854,0.1625263136897084
0.5165998151823684,0.00832792835699319,0.023025814623472828,0.049035654293056966,200.5790515831701,-7.229410036589902,119.4374050783521,0.0008492121524747598,9.1,19.945146894905676,3.266770046343999,0.9918500324732477,0.1623462347866841
0.514374024076967,0.005353505605770677,0.020076310252888446,0.04903057827682881,201.57695467768437,-7.066061124362256,119.48702636224404,0.0005459055920182797,9.15,19.970976885664793,3.2671864427618487,0.9930013232044212,0.1621602297264344
0.512098348098457,0.0023786960660968667,0.01711237283773088,0.04901857566228068,202.57614648949772,-6.902695110342155,119.53670152379208,0.00024255948967757474,9.2,19.996695586868643,3.2674541180421373,0.9940051387170656,0.16196833581630488
0.5097730473566778,-0.0005962853333328212,0.014134714449707736,0.04899964251611603,203.57662139177629,-6.739319431069966,119.58642317119397,-6.0804182121108575e-05,9.25,20.022300504273566,3.2675730528454423,0.9948607573589522,0.16177059027511165
0.5073983878888886,-0.0035712236514067177,0.011144050456924216,0.04897377633488683,204.57837363329915,-6.57594152378436,119.63618387745497,-0.00036416344965311837,9.3,20.0477891566414,3.2675432385787757,0.9955674930814375,0.16156703022761512
0.5049746416276742,-0.0065459039501252194,0.008141099352019614,0.04894097603532313,205.58139733911608,-6.4125688258849864,119.68597618217211,-0.0006674963395192426,9.35,20.073159076035843,3.2673646773962055,0.9961246956042837,0.1613576926991724
0.5025020863681383,-0.009520111310130822,0.005126582579552681,0.048901241944570295,206.5856865112199,-6.249208774395115,119.73579259332652,-0.0009707808802697243,9.4,20.098407808117226,3.267037382198699,0.9965317505718847,0.16114261461056578
0.4999810057343864,-0.01249363084623563,0.0021012243626783653,0.04885457579033944,207.59123502923373,-6.085868805424318,119.78562558908335,-0.001273995104027987,9.45,20.123532912435632,3.2665613766331925,0.9967880797008624,0.16092183277300556
0.49741168914530587,-0.015466247722946504,-0.0009342484708434184,0.04880098069097599,208.5980366511127,-5.922556353631216,119.83546761959886,-0.001577117048114061,9.5,20.148531962722352,3.265936695090881,0.9968931409189963,0.16069538388330531
0.4947944317796432,-0.018437747169987275,-0.003979106663265293,0.048740461145451476,209.60608501386022,-5.759278851686325,119.88531110883422,-0.0018801247566676256,9.55,20.173402547179617,3.2651633827047335,0.9968464284954541,0.16046330451922733
0.49212953454038677,-0.02140791449781559,-0.007032618702052025,0.04867302302328299,210.61537363425893,-5.596043729735051,119.93514845637566,-0.002182996282270391,9.6,20.1981422687686,3.264241495346234,0.9966474731622909,0.1602256311349964
0.48941730401845657,-0.024376535113133816,-0.01009405099562349,0.04859867355438516,211.62589590961554,-5.432858414860861,119.9849720392604,-0.0024857096875677376,9.65,20.22274874549562,3.263171099621343,0.9962958422271883,0.15998240005698008
0.48665805245570515,-0.027343394534394168,-0.013162668049596645,0.04851742131885888,212.63764511852034,-5.2697303305486844,120.03477421380802,-0.002788243046889599,9.7,20.24721961069654,3.2619522728656865,0.9957911396774071,0.15973364747953295
0.4838520977072378,-0.030308278407293818,-0.016237732643484208,0.048429276236721115,213.65061442162073,-5.106666896148568,120.08454731745682,-0.003090574447870136,9.75,20.271552513319325,3.2605851031389665,0.9951330062749273,0.15947940946100328
0.48099976320305116,-0.03327097252026277,-0.019318506007808545,0.04833424955757978,214.66479686240882,-4.943675526339629,120.13428367060477,-0.0033926819930664522,9.8,20.295745118204685,3.259069689218602,0.994321119642753,0.15921972191990003
0.4781013779090003,-0.03623126281994023,-0.022404248001587215,0.04823235385025768,215.68018536802305,-4.780763630594349,120.1839755784544,-0.003694543801575895,9.85,20.319795106364836,3.2574061405925887,0.9933551943423626,0.15895462063121762
0.4751572762870946,-0.03918893542663961,-0.02549421729014834,0.04812360299236927,216.69677275006367,-4.617938612643244,120.23361533286152,-0.0039961380106519305,9.9,20.343700175260285,3.2555945774515918,0.9922349819422833,0.15868414122291727
0.47216779825512967,-0.04214377664980177,-0.028587671523233354,0.04800801215985374,217.71455170542205,-4.455207869939948,120.28319521418702,-0.00429744277731852,9.95,20.367458039074638,3.2536351306802596,0.990960271077776,0.158408319172562
0.46913328914566027,-0.0450955730034337,-0.0316838675133419,0.04788559781646796,218.73351481712362,-4.292578793126747,120.3327074931515,-0.004598436279982693,10.0,20.391066428987394,3.2515279418477694,0.9895308875016143,0.158127189804104
0.4660540996643173,-0.04804411122153297,-0.03478206141428014,0.04775637770324263,219.75365455518443,-4.130058765500612,120.38214443269219,-0.004899096720045329,10.05,20.414523093444675,3.2492731631975977,0.9879466941259473,0.15784078828482165
0.46293058584747615,-0.0509891782734958,-0.0378815088998654,0.0476203708279046,220.77496327748125,-3.9676551624797596,120.43149828982172,-0.005199402323509888,10.1,20.43782579842789,3.246870957636521,0.9862075910552333,0.15754914962240477
0.45976310901928014,-0.05393056137950887,-0.04098146534274759,0.047477597454268605,221.79743323063497,-3.8053753510707753,120.48076131748836,-0.005499331342589098,10.15,20.460972327720263,3.2443214987228464,0.9843135156102399,0.15725230866218565
0.45655203574802405,-0.05686804802592229,-0.04408118599330209,0.047328079091600986,222.82105655090726,-3.6432266893363576,120.5299257664372,-0.0057988620573092954,10.2,20.483960483171227,3.241624970653871,0.9822644423431026,0.15695030008451397
0.4532977378019051,-0.059801425980603666,-0.04717992615855189,0.0471718384839584,223.8458252651105,-3.4812165258636965,120.57898388707187,-0.006097972777112395,10.25,20.50678808495863,3.2387815682525747,0.9800603830434376,0.15664315840227355
0.450000592104143,-0.0627304833082719,-0.05027694138107749,0.04700889959950395,224.8717312915307,-3.3193521992335437,120.62792793131634,-0.006396641842455327,10.3,20.529452971848723,3.2357914969535444,0.97770138673551,0.15633091795853904
0.4466609806874793,-0.06565500838580905,-0.05337148761786802,0.046839287619803036,225.89876644086326,-3.1576410374900017,120.67675015447638,-0.006694847626406744,10.35,20.55195300145393,3.2326549727881306,0.9751875396664561,0.1560136129243704
0.44327929064805666,-0.06857478991755055,-0.05646282141907469,0.04666302892910164,226.92692241716182,-2.9960903576110773,120.72544281710019,-0.006992568536241,10.4,20.574286050488304,3.2293722223688404,0.9725189652855627,0.1556912772967433
0.4398559140986874,-0.07148961695055087,-0.059550200106621126,0.04648015110358871,227.95619081879954,-2.834707464980032,120.77399818683769,-0.007289783015029106,10.45,20.596450015020707,3.225943482872963,0.969695824214609,0.1553639448966133
0.43639124812151486,-0.07439927888982466,-0.06263288195262759,0.046290682900645135,228.9865631394432,-2.673499652857572,120.82240854029828,-0.007586469543226599,10.5,20.618442810725643,3.2223690020254354,0.9667183142092779,0.15503164936711197
0.43288569472007354,-0.0773035655135628,-0.0657101263576085,0.04609465424808093,230.01803076903965,-2.5124742018549124,120.87066616490631,-0.00788260664025829,10.55,20.64026237313172,3.2186490380809443,0.9635866701116466,0.15469442417187323
0.4293396607707559,-0.08020226698831989,-0.06878119402839687,0.04589209623336253,231.05058499481464,-2.351638379407757,120.91876336075396,-0.00817817286609948,10.6,20.66190665786772,3.2147838598052663,0.9603011637937662,0.1543523025934873
0.42575355797368825,-0.08309517388417538,-0.07184534715575633,0.04568304109283198,232.084217002284,-2.1909994392512293,120.9666924424511,-0.008473146822853876,10.65,20.683373640906257,3.21077374645585,0.9568621040923463,0.154005317732081
0.4221278028030233,-0.08598207718986457,-0.07490184959163684,0.0454675222009194,233.11891787627675,-2.0305646208957917,121.01444574097178,-0.00876750715632778,10.7,20.70466131880494,3.2066189877616416,0.9532698367345585,0.15365350250402227
0.41846281645665806,-0.0888627683278792,-0.0779499670260296,0.04524557405935024,234.15467860197052,-1.870341149104197,121.06201560549653,-0.009061232557600496,10.75,20.725767708945092,3.2023198839021485,0.9495247442549766,0.15329688964074678
0.4147590248053773,-0.09173703916953797,-0.08098896716338254,0.045017232286348706,235.19149006593832,-1.7103362333694996,121.1093944052505,-0.009354301764591014,10.8,20.746690849767926,3.1978767454857544,0.9456272459036751,0.15293551168770528
0.4110168583414344,-0.09460468205002272,-0.08401811989853003,0.04478253360583856,236.22934305720773,-1.5505570673941738,121.15657453133673,-0.00964669356362045,10.85,20.767428801008194,3.1932898935272775,0.941577797545506,0.15256940100342933
0.40723675212657273,-0.09746548978338265,-0.08703669749209741,0.04454151583664227,237.26822826833106,-1.3910108285703724,121.20354839856412,-0.009938386790970526,10.9,20.787979643925265,3.1885596594247763,0.9373768915505795,0.15219858975871361
0.40341914573949367,-0.10031925567750379,-0.09004397474533746,0.04429421788167982,238.3081362964675,-1.2317046774613627,121.25030844726979,-0.010229360334437736,10.95,20.808341481531595,3.183686384935607,0.9330250566759746,0.15182310993591358
0.39956448322278104,-0.10316577354904136,-0.09303922917435467,0.04404067971716782,239.34905764447623,-1.0726457572841792,121.29684714513516,-0.010519593134882994,11.0,20.82851243881857,3.178670422151732,0.9285228579387077,0.15144299332835584
0.39567321302928243,-0.10600483773831769,-0.0960217411836797,0.04378094238181976,240.3909827220212,-0.9138411933935289,121.34315698899563,-0.010809064187776956,11.05,20.84849066297971,3.17351213347428,0.92387089647999,0.15105827153985996
0.3917457879679607,-0.10883624312417997,-0.09899079423914814,0.04351504796604837,241.43390184668647,-0.7552980927669877,121.38923050664314,-0.011097752544740463,11.1,20.868274323631173,3.1682118915873643,0.919069809420806,0.15066897598437004
0.3877826651492165,-0.1116597851388206,-0.10194567504004429,0.04324303960117038,242.47780524510299,-0.5970235434915246,121.43506025862138,-0.011385637315080362,11.15,20.88786161302957,3.162770079431155,0.9141202697088485,0.15027513788569385
0.38378430592969187,-0.11447525978255757,-0.10488567369046878,0.04296496144861443,243.5226830540859,-0.4390246142513904,121.48063884001301,-0.011672697667320391,11.2,20.907250746287033,3.157187090174214,0.9090229859568463,0.14987678827734827
0.3797511758565604,-0.11728246363857235,-0.10781008386988689,0.04268085868913258,244.56852532178266,-0.2813083538174079,121.52595888221875,-0.011958912830726913,11.25,20.92643996158352,3.151463327185086,0.9037787022723228,0.1494739580025091
0.37568374461130977,-0.12008119388760773,-0.1107182030028197,0.04239077751201555,245.61532200883167,-0.12388179053770178,121.57101305472752,-0.012244262096829682,11.3,20.945427520376345,3.1455992040031573,0.8983881980788285,0.1490666777140635
0.3715824859530269,-0.12287124832262052,-0.11360933242763327,0.04209476510431234,246.66306298953126,0.0332480681700966,121.6157940668777,-0.012528724820937143,11.35,20.96421170760691,3.139595144308777,0.8928522879286875,0.14865497787476373
0.3674478776611876,-0.12565242536339138,-0.11648277756438943,0.04179286964005413,247.71173805301902,0.19007423632513218,121.6602946696086,-0.012812280423646447,11.4,20.982790831904563,3.1334515818926456,0.8871718213073059,0.1482388887574801
0.3632804014779609,-0.12842452407108923,-0.11933784808171538,0.041485140269482725,248.76133690446133,0.34658974988806024,121.70450765720202,-0.013094908392347952,11.45,21.00116322578762,3.127168960624476,0.8813476824290865,0.147818440445552
0.35908054305003617,-0.131187344162788,-0.1221738580626521,0.041171627108283475,249.81184916625256,0.5027876672641952,121.74842586901336,-0.013376588282723935,11.5,21.01932724586152,3.1207477344209216,0.8753807900250007,0.14739366283323513
0.35484879186997503,-0.13394068602593814,-0.12499012616944288,0.040852381226822956,250.86326437922446,0.6586610698050378,121.79204219119204,-0.013657299720241765,11.55,21.03728127301402,3.1141883672127824,0.869272097121868,0.1469645856262431
0.3505856412171018,-0.1366843507327877,-0.12778597580722112,0.04052745463939082,251.915572003865,0.8142030623081445,121.83534955839043,-0.013937022401640974,11.6,21.055023712607518,3.1074913329114855,0.8630225908133959,0.14653123834238282
0.3462915880979336,-0.13941814005475492,-0.13056073528655915,0.040196900293446136,252.9687614215469,0.9694067735153028,121.87834095546135,-0.014215736096414456,11.65,21.072552994668374,3.100657115374846,0.8566332920230348,0.1460936503122809
0.34196713318616034,-0.14214185647675082,-0.13331373798483884,0.03986077205886778,254.02282193576545,1.1242653566089766,121.9210094191434,-0.014493420648283588,11.7,21.08986757407327,3.0936862083721084,0.8501052552587068,0.14565185068020048
0.3376127807621835,-0.14485530321144843,-0.13604432250640355,0.03951912471720852,255.07774277338558,1.278771989706986,121.96334803973384,-0.01477005597666694,11.75,21.106965930732578,3.086579115548271,0.8434395683594649,0.14520586840494684
0.3332290386522157,-0.14755828421350178,-0.1387518328414562,0.03917201395095267,256.1335130858982,1.4329198763553854,122.00534996274868,-0.015045622078142881,11.8,21.123846569770688,3.0793363503876985,0.8366373522341447,0.14475573226085978
0.32881641816695484,-0.1502506041937092,-0.14143561852366163,0.03881949633277672,257.190121950685,1.5867022460195035,122.04700839056933,-0.01532009902790551,11.85,21.140508021703297,3.0719584361770234,0.8296997605920718,0.14430147083889236
0.3243754340398348,-0.15293206863312314,-0.1440950347864187,0.03846162931481258,258.24755837229293,1.7401123545731125,122.08831658407578,-0.015593466981214145,11.9,21.156948842611644,3.0644459059673377,0.8226279796658887,0.1438431125477734
0.31990660436486296,-0.15560248379710453,-0.14672944271776203,0.03809847121791296,259.3058112837161,1.893143484785688,122.1292678642656,-0.01586570617483614,11.95,21.173167614313638,3.0567993025356817,0.8154232279265679,0.1433806856152536
0.31541045053405314,-0.15826165674931916,-0.14933820941385736,0.037730081220918206,260.3648695476872,2.045788946807726,122.16985561385853,-0.016136796928482782,12.0,21.18916294453188,3.0490191783458265,0.8080867557906798,0.14291421808943278
0.31088749717445674,-0.1609093953656783,-0.15192070813105432,0.03735651934992411,261.424721957977,2.1980420786540806,122.2100732788863,-0.016406719646238493,12.05,21.204933467058584,3.0411060955083604,0.8006198453199869,0.14244373784016756
0.30633827208480663,-0.16354550834821852,-0.15447631843645762,0.036977846467550056,262.4853572407014,2.3498962466852915,122.24991437026713,-0.01667545481798279,12.1,21.220477841917308,3.0330606257400765,0.7930238099134341,0.14196927256055827
0.30176330617177477,-0.1661698052389234,-0.1570044263569838,0.03659412426220664,263.54676405563737,2.50134484608686,122.28937246536476,-0.016942983020805304,12.15,21.23579475552155,3.0248833503226655,0.7852999939916112,0.14149084976851328
0.2971631333858551,-0.1687820964334845,-0.1595044245268652,0.03620541523736224,264.6089309975461,2.652381301346445,122.3284412095314,-0.017209284920413574,12.2,21.25088292083014,3.0165748600607194,0.777449772673762,0.14100849680838973
0.29253829065688003,-0.17138219319499903,-0.16197571233356614,0.03581178270080766,265.6718465975043,2.802999066728939,122.36711431763443,-0.017474341272533354,12.25,21.26574107749943,3.0081357552390453,0.7694745514474187,0.14052224085270953
0.28788931782917393,-0.17396990766760734,-0.16441769606207823,0.03541329075391794,266.7354993242426,2.9531916267493976,122.40538557556638,-0.01773813292430173,12.3,21.280367992032275,2.9995666455792955,0.7613757658307404,0.14003210890394946
0.2832167575963574,-0.17654505289006428,-0.16682978903755635,0.035010004280910764,267.79987758549146,3.102952496643778,122.44324884173784,-0.018000640815652474,12.35,21.294762457923735,2.990868150195915,0.7531548810276365,0.1395381277964036
0.2785211554358061,-0.1791074428092476,-0.16921141176626514,0.03460198893810023,268.86496972933463,3.252275222837461,122.48069804855294,-0.018261845980693928,12.4,21.308923295803552,2.982040897551412,0.7448133915757587,0.13904032419811768
0.2738030595427712,-0.18165689229360057,-0.17156199207479977,0.034189311143145384,269.9307640455691,3.40115338341152,122.51772720386703,-0.018521729549079144,12.45,21.322849353575343,2.9730855254109496,0.7363528209874454,0.1385387246128938
