ax,ay,az,pitch_rad,px,py,pz,roll_rad,time_s,vx,vy,vz,yaw_rad
0.0,0.0,0.0,0.00829178654945518,15.0,-10.0,85.0,0.0,0.0,12.0,1.2,0.1,0.09966865249116202
0.000719995680007776,0.006616554292917341,0.0003599913600622078,0.00829178654945518,15.8,-9.92,85.00666666666666,0.0006747006662743323,0.0666666667,12.0,1.2,0.1,0.09966865249116202
0.0014399654402488312,0.013232434358539918,0.0007199308819906287,0.0082937134058356,16.600001599990403,-9.839985296546015,85.01333413331412,0.0013493319663482272,0.1333333333,12.000047999712,1.2004411036195277,0.10002399942400415,0.09970465086841665
0.002159883361889553,0.019846966045577084,0.0010797667351160774,0.008297566716017191,17.400007999894402,-9.75992648422836,85.02000399978878,0.002023824542400651,0.2,12.000143997408017,1.201323265910097,0.10007199481613686,0.0997766422868745
0.0028797235279625147,0.026459475354737777,0.0014394471036974978,0.008303345674850946,18.20002239946241,-9.67979416213203,85.0266778655915,0.002698109053367887,0.2666666667,12.000287989632143,1.202646396979802,0.10014397926514461,0.09988461607433713
0.003599460024299479,0.033069288514708715,0.0017989201943833378,0.008311049074637266,19.000047998156838,-9.599558936832588,85.03335732964717,0.0033721161833184794,0.3333333333,12.000479971200674,1.2044103620034512,0.10023994240539111,0.10002855622227015
0.00431906694046431,0.03967573205810668,0.002158134243669706,0.008320675305155237,19.800087995036936,-9.519191425391215,85.04004399007464,0.004045776649823713,0.4,12.000719935202294,1.2066149812377651,0.10035987041835,0.10020844138552562
0.005038518370685742,0.04627813289739621,0.002517037525354224,0.008332222353702652,20.600145588643624,-9.438662258348568,85.0467394439564,0.004719021212322149,0.4666666667,12.001007872998326,1.209260030041639,0.10050374603459464,0.10042424488198294
0.005757788414789991,0.05287581840076416,0.002875578357984511,0.008345687805147564,21.400223976884337,-9.357942082717132,85.05344528710876,0.005391780680476741,0.5333333333,12.001343774223038,1.2123452389014653,0.10067154853628492,0.10067593469211737
0.006476851179133146,0.05946811646794241,0.0032337051123002237,0.008361068841992442,22.200326356917905,-9.2770015649717,85.06016311385198,0.006063985922523045,0.6,12.001727626784024,1.2158702934615162,0.10086325376015055,0.10096347345850785
0.007195680777533351,0.06605435560597013,0.003591366218667581,0.008378362244452152,23.00045592503946,-9.19581139403767,85.06689451678069,0.00673556787360706,0.6666666667,12.002159416862634,1.219834834559379,0.10107883410097057,0.10128681848529818
0.007914251332202697,0.07263386500488708,0.0039485101745053,0.008397564390547204,23.800615876565363,-9.114342284276809,85.07364108653458,0.007406457544111228,0.7333333333,12.002639128914469,1.2242384582664436,0.1013182585155484,0.1016459217376274
0.008632536974678823,0.07920597461334912,0.004305085551700885,0.008418671256213862,24.600809405718177,-9.032564978470146,85.08040441156933,0.008076586027967118,0.8,12.00316674566995,1.229080715933436,0.10158149252718209,0.10204072984104819
0.009350511846756174,0.08577001521415761,0.004661041004016176,0.008441678415433009,25.401039705511675,-8.950450250797665,85.08718607792792,0.008745884510953365,0.8666666667,12.003742248134929,1.2343611142409927,0.10186849823062881,0.10247118408095353
0.010068150101416895,0.09232531849969389,0.005016325274481128,0.008466581040379723,26.201309967635883,-8.867968909814456,85.09398766901221,0.009414284278977397,0.9333333333,12.004365615591379,1.24007911525527,0.10217923429756322,0.10293722040203475
0.010785425903761324,0.09887121714725036,0.005370887202774725,0.008493373901595797,27.0016233823422,-8.785091801422993,85.10081076535488,0.010081716726339503,1.0,12.00503682559814,1.246234136488583,0.10251365598252862,0.10343876940779559
0.011502313431938044,0.10540704489424961,0.00572467573259197,0.008522051368187601,27.80198313832853,-8.701789811841206,85.10765694439195,0.010748113363977822,1.0666666667,12.005755853991724,1.2528255509650663,0.10287171512938027,0.10397575636014958
0.01221878687807346,0.11193213661334299,0.006077639918995914,0.008552607408051822,28.602392422624494,-8.618033870565991,85.11452778023553,0.01141340582769283,1.1333333333,12.006522674887186,1.2598526872913496,0.10325336017821973,0.10454810117912965
0.012934820449200895,0.11844582838738019,0.006429728935753634,0.00858503558813185,29.402854420476704,-8.533794953331872,85.12142484344724,0.012077525886349905,1.2,12.007337260679058,1.2673148297322392,0.10365853617281946,0.10515571844274123
0.013650388368189114,0.12494745758424103,0.006780892082655123,0.008619329074707716,30.203372315234084,-8.449044085064418,85.12834970081195,0.012740405450058548,1.2666666667,12.008199582042339,1.275211218291398,0.10408718476853637,0.10579851738699175
0.014365464874670324,0.1314363629315214,0.007131078792814037,0.008655480633722627,31.00394928823328,-8.363752342828137,85.13530391511226,0.013401976578326901,1.3333333333,12.009109607933551,1.283541048797014,0.10453924424071338,0.10647640190613168
0.01508002422596751,0.13791188459106446,0.00748023863994923,0.00869348263114936,31.804588518684128,-8.277890858768489,85.1422890449034,0.01406217148819017,1.4,12.010067305591862,1.2923034729924487,0.10501464949356765,0.10718927055314376
0.0157940406980212,0.14437336423332892,0.00782832134564606,0.008733327033399896,32.6052931835552,-8.191430823047678,85.14930664428886,0.014720922562311563,1.4666666667,12.01107264054026,1.301497598631853,0.10551333206956426,0.10793701654051933
0.016507488586315518,0.1508201451115854,0.008175276786596391,0.008775005407781755,33.40606645745944,-8.104343486773926,85.15635826269649,0.015378162357054376,1.5333333333,12.012125576586794,1.3111224895807416,0.106035220159274,0.10871952774136165
0.01722034220680354,0.1572515721359335,0.008521055001816264,0.008818508923004792,34.20691151253986,-8.016600164923851,85.16344544465552,0.016033823610523974,1.6,12.013226075825882,1.321177165921514,0.10658023861171376,0.10953668669085871
0.017932575896831907,0.16366699194712986,0.008865606199840186,0.008863828349742142,35.00783151835538,-7.928172239257671,85.17056972957408,0.0166878392505782,1.6666666667,12.014374098639669,1.3316606040639094,0.10714830894516818,0.11038837058816875
0.018644164016064703,0.17006575299022,0.009208880765891027,0.008910954061249319,35.808829641766685,-7.839031161226861,85.17773265151754,0.017340142402805018,1.7333333333,12.015569603699458,1.3425717368603847,0.10773934935849086,0.11127445129876369
0.01935508094740649,0.1764472055879644,0.009550829269024449,0.008959876034045381,36.609909046822246,-7.749148454873968,85.18493573898759,0.017990666398465978,1.8,12.016812547967195,1.3539094537263994,0.1083532747428836,0.11219479535727706
0.020065301097924513,0.18281070201405172,0.009891402469246883,0.009010583848660415,37.411072894644384,-7.658495719724234,85.19218051470216,0.018639344782404345,1.8666666667,12.018102886697022,1.365672600765597,0.1089899966941519,0.11314926397090412
0.020774798899770065,0.18915559656609002,0.01023055132460601,0.00906306669045346,38.212324343315515,-7.567044633668719,85.19946849537614,0.019286111320916524,1.9333333333,12.019440573436883,1.377859980899867,0.10964942352543502,0.11413771302340361
0.0214835488110989,0.19548124563836755,0.010568226998252698,0.009117313350505226,39.013666547764416,-7.474766955838581,85.206801191503,0.019930900009585546,2.0,12.020825560030202,1.390470354004273,0.11033146028040876,0.11515999307975107
0.022191525316990753,0.20178700779437553,0.010904380865473446,0.009173312226590017,39.81510265965268,-7.381634529470212,85.21418010713725,0.02057364508107539,2.0666666667,12.022257796617609,1.403502437046831,0.11103600874695894,0.1162159493914953
0.02289870293036788,0.2080722438390844,0.01123896452069225,0.009231051324231253,40.61663582726123,-7.28761928476088,85.22160673967787,0.02121428101288501,2.1333333333,12.023737231638743,1.4169549042331226,0.11176296747132385,0.11730542190287034
0.02360505619291257,0.21433631689096475,0.01157192978444091,0.00929051825784515,41.418269195376986,-7.1926932417145855,85.22908257965267,0.021852742535060636,2.2,12.025263811834101,1.4308263871557283,0.11251223177270334,0.11842824525771624
0.024310559675983657,0.22057859245374548,0.01190322871029681,0.009351700251977126,42.22000590517969,-7.096828512977779,85.2366091105037,0.02248896463786543,2.2666666667,12.026837482246963,1.4451154749484594,0.11328369375833273,0.11958424880726248
0.025015187981531947,0.22679843848790132,0.012232813591787104,0.00941458414263547,43.02184909412877,-6.999997306664651,85.24418780837361,0.023122882579405223,2.3333333333,12.028458186225361,1.4598207144453756,0.11407724233901918,0.12077325661882898
0.025718915743014537,0.23299522548185983,0.012560636969258384,0.009479156378726962,43.823801895850416,-6.902171929171653,85.25182014189308,0.02375443189320906,2.4,12.03012586542413,1.474940610344569,0.11489276324513832,0.12199508748549992
0.02642171762630802,0.23916832652292225,0.012886651636710766,0.009545403023599044,44.625867440024784,-6.8033247879809435,85.25950757196935,0.024383548395763736,2.4666666667,12.031840459806999,1.490473625376693,0.11573013904308888,0.12324955493682603
0.027123568330620493,0.24531711736788786,0.01321081064859549,0.00961330975669318,45.42804885227331,-6.703428394452446,85.26725155157587,0.025010168194000846,2.5333333333,12.033601907648752,1.5064181804782213,0.11658924915220292,0.1245364672506116
0.027824442589402414,0.2514409765133759,0.013533067326574987,0.009682861875314044,46.23034925404618,-6.602455366604191,85.275053525543,0.02563422769273564,2.6,12.03541014553746,1.5227726549694138,0.1174699698621093,0.1258556274658424
0.02852431517125615,0.2575392852658347,0.013853375266244486,0.00975404429651915,47.03277176250999,-6.5003784318806455,85.28291493035009,0.026255663602056282,2.6666666667,12.037265108376754,1.5395353867369723,0.11837217435054763,0.12720683339681124
0.02922316088084434,0.26361142781123265,0.014171688343814163,0.009826841559133477,47.83531949043549,-6.3971704299087015,85.29083719391849,0.026874412944662716,2.7333333333,12.039166729388171,1.5567046724213613,0.11929573270163059,0.12858987764849727
0.02992095455979692,0.2696567912844207,0.01448796072275089,0.009901237825893658,48.63799554608554,-6.29280431524103,85.29882173540602,0.027490413063153984,2.8,12.04111494011356,1.5742787676087768,0.12024051192455153,0.13000454763325547
0.03061767108761681,0.2756747658381607,0.014802146860378618,0.009977216885726161,49.44080303310324,-6.187253160086479,85.3068699650026,0.028103601627263084,2.8666666667,12.043109670417547,1.5922558870277381,0.12120637597273493,0.1314506255888727
0.03131328538258424,0.2816647447118094,0.015114201514436435,0.010054762156163917,50.243745050400165,-6.080490157027212,85.31498328372714,0.028713916641038298,2.9333333333,12.045150848490055,1.6106342047502822,0.12219318576342683,0.13292788859804558
0.032007772402659736,0.2876261242996527,0.015424079749593395,0.010133856685905659,51.046824692044794,-5.9724886217222775,85.32316308322585,0.029321296449970093,3.0,12.047238400848894,1.629411854397736,0.12320079919772259,0.13443610860933572
0.032701107146385563,0.2935583042188803,0.01573173694391909,0.010214483157522275,51.85004504715117,-5.863221995597319,85.3314107455718,0.029925679748062695,3.0666666667,12.049372252342405,1.6485869293510462,0.12422907118102881,0.13597505245965666
0.033393264653785844,0.2994606873771946,0.01603712879530917,0.010296623890314218,52.65340919976766,-5.752663848520096,85.33972764306597,0.030527005584849318,3.1333333333,12.051552326152164,1.6681574829656383,0.12527785364395674,0.13754448189834656
0.034084220007265055,0.3053326800400451,0.016340211327864753,0.010380260843324038,53.45692022876592,-5.640787881461549,85.34811513803956,0.031125213372350264,3.2,12.05377854379575,1.6881215287907845,0.126346995563644,0.1391441536128794
0.0347739483325051,0.31117369189748106,0.016640940898224876,0.010465375618507857,54.26058120773009,-5.527567929142075,85.35657458265787,0.031720242891972984,3.2666666667,12.056050825129567,1.7084770407934542,0.12743634298550166,0.14077381925626678
0.035462424799360744,0.31698313613061546,0.01693927420185106,0.010551949464069557,55.064395204846136,-5.4129779626627395,85.36510731872558,0.03231203430135329,3.3333333333,12.058369088351734,1.7292219535866196,0.12854573904538333,0.14243322547620071
0.03614962462275356,0.3227604294776907,0.017235168279263104,0.010639963277961193,55.86836528279136,-5.296992092121119,85.3737146774935,0.032900528141136774,3.4,12.060733250005024,1.7503541626619938,0.1296750239921734,0.14412211394598745
0.03683552306356411,0.3285049922997415,0.01752858052222516,0.010729397611553088,56.67249449862419,-5.179584569211481,85.38239797946693,0.03348566534169988,3.4666666667,12.063143224979873,1.7718715246271732,0.13082403521079095,0.14584022139731995
0.0375200954295226,0.33421624864584476,0.01781946867988126,0.010820232673476777,57.4767859036741,-5.060729789809003,85.39115853421548,0.03406738722980959,3.5333333333,12.065598926517444,1.793771857447156,0.13199260724560596,0.1475872796549358
0.038203317076097795,0.3398936263179507,0.018107790864839348,0.010912448333643838,58.28124254343177,-4.940402296537758,85.39999764018447,0.03464563553522119,3.6,12.068100266212745,1.8160529406902122,0.1331805718242647,0.1493630156732051
0.038885163407384196,0.3455365569352873,0.01839350555920301,0.011006024127443443,59.085867457439456,-4.818576781322148,85.408916584508,0.03522035239721322,3.6666666667,12.070647154017818,1.8387125157780755,0.13438775788192067,0.151167151574692
0.03956560987698753,0.35114447599833026,0.018676571620549975,0.011100939260121174,59.89066367918154,-4.695228087921532,85.4179166428236,0.035791480371059066,3.7333333333,12.073239498244977,1.861748286240428,0.13561399158586754,0.15299940469073028
0.040244631988908375,0.3567168229523322,0.018956948287856542,0.011197172611341552,60.695634235975376,-4.570331214447729,85.42699907908849,0.036358962434434344,3.8,12.075877205570109,1.88515791797365,0.13685909636057086,0.1548594876040526
0.04092220529842404,0.3622530412504037,0.019234595187367108,0.01129470273993631,61.50078214886225,-4.4438613158651465,85.43616514539761,0.03692274199375963,3.8666666667,12.078560181036035,1.9089390395038055,0.13812289291309462,0.15674710819351015
0.04159830541296854,0.36775257841613757,0.019509472338407913,0.011393507888840387,62.30611043249865,-4.315793706473226,85.44541608180334,0.03748276289047765,3.9333333333,12.08128832805593,1.9330892422538324,0.1394051992589191,0.15866196968091717
0.04227290799301079,0.37321488610577175,0.01978154015914419,0.011493565990217173,63.111622095047736,-4.186103862370935,85.4547531161369,0.03803896940726458,4.0,12.084061548416795,1.9576060808149083,0.14070583074814627,0.16060377068005288
0.04294598875293077,0.3786394201698809,0.020050759472279894,0.011594854670774412,63.91732013807106,-4.054767423903039,85.46417746383156,0.038591306274174654,4.0666666667,12.086879742282996,1.9824870732219597,0.14202460009208923,0.1625722052478502
0.043617523461893785,0.3840256407145926,0.02031709151069913,0.011697351257271787,64.72320755642049,-3.9217601980878642,85.47369032774763,0.0391397186747177,4.1333333333,12.089742808199858,2.007729701233285,0.14336131739024122,0.1645669629377984
0.044287487944722884,0.3893730121623191,0.020580497923048596,0.01180103278222101,65.5292873381304,-3.7870581610262795,85.48329289799922,0.03968415225186895,4.2,12.092650643097318,2.033331410614258,0.14471579015762115,0.16658772885558398
0.044955858082769,0.39468100331199735,0.02084094077926007,0.011905875989778837,66.3355624643101,-3.6506374602916347,85.49298635178289,0.040224553114010526,4.2666666667,12.095603142293633,2.0592896114250796,0.14608782335249104,0.16863418371699113
0.045622609814779364,0.3999490873988336,0.021098382576012303,0.012011857341833217,67.14203590903652,-3.5124744173003806,85.50277185320813,0.04076086784080447,4.3333333333,12.09860019949915,2.085601678312546,0.14747721940444172,0.17070600390808052
0.04628771913776364,0.4051767421535422,0.021352786242131425,0.012118953024282442,67.94871063924715,-3.3725455296631024,85.5126505531297,0.041293043488996345,4.4,12.101641706820136,2.112264950805802,0.14888377824284255,0.17280286154766145
0.04695116210785801,0.41036344986107304,0.02160411514392911,0.012227138953506826,68.75558961463324,-3.2308274735157076,85.52262358898199,0.04182102759814937,4.4666666667,12.104727554762654,2.139276733616038,0.15030729732565132,0.1749244245520699
0.04761291484118724,0.4155086974188225,0.021852333090477804,0.012336390783032107,69.56267578753321,-3.0872971058305025,85.53269208461512,0.04234476819630846,4.5333333333,12.107857632236511,2.1666342969401096,0.1517475716685799,0.17707035670226196
0.048272953514724354,0.4206119763943194,0.02209740433882212,0.012446683910383508,70.3699721028264,-2.941931466706898,85.54285715013323,0.042864213805593854,4.6,12.111031826559257,2.194334876768031,0.15320439387461177,0.17924031771322718
0.048931254367148416,0.42567278308237927,0.02233929359912578,0.01255799348412896,71.17748149782705,-2.794707781641486,85.55311988173452,0.04337931344772382,4.6666666667,12.114250023460238,2.222375675194319,0.15467755416386658,0.18143396330572595
0.04958779369969984,0.4306906185617227,0.022577966039753275,0.012670294411109718,71.98520690217855,-2.645603463777237,85.56348136155344,0.04389001664946631,4.7333333333,12.117512107084716,2.2507538607331443,0.1561668404038083,0.18365094528034842
0.050242547877033535,0.4356649887510483,0.022813387292285586,0.012783561363856244,72.79315123774796,-2.494596116131557,85.57394265750489,0.04439627344801899,4.8,12.120817959998028,2.2794665686372593,0.15767203813979186,0.1858909115938915
0.05089549332806985,0.4405954044645569,0.02304552345646915,0.012897768788186855,73.60131741852089,-2.341663533802959,85.58450482313042,0.044898034396317475,4.8666666667,12.124167463189831,2.3085109012206626,0.15919293062594422,0.18815350643804488
0.051546606546843066,0.4454813814669181,0.02327434110509746,0.013012890910986364,74.4097083504965,-2.186783706156105,85.59516889744648,0.045395250568271435,4.9333333333,12.127560496078369,2.3378839281849664,0.1607292988563755,0.19043837032037533
0.05219586409334762,0.45032244052767395,0.023499807288824497,0.013128901748161474,75.21832693158295,-2.0299348189849584,85.60593590479492,0.0458878735639282,5.0,12.130996936514824,2.3675826869494276,0.1622809215967153,0.19274514014759347
0.05284324259438196,0.455118107475075,0.023721889540909424,0.013245775112769483,76.02717605149303,-1.8710952566538241,85.61680685469534,0.04637585551456393,5.0666666667,12.134476660787714,2.397604182984606,0.16384757541597028,0.19507344931108406
0.053488718744389964,0.4598679132493395,0.023940555881891683,0.013363484623316374,76.8362585916402,-1.710243604216017,85.62778274169983,0.04685914908770157,5.1333333333,12.13799954362734,2.427945390149611,0.16542903471869758,0.19742292777467707
0.05413226930629995,0.4645713939553332,0.024155774824196032,0.013482003712220155,77.6455774250348,-1.5473586495099332,85.6388645452497,0.04733770749205604,5.2,12.141565458210298,2.4586032510329003,0.16702507177749035,0.19979320216463362
0.054773871112361185,0.4692280909146599,0.024367515376666676,0.013601305634434836,78.45513541618061,-1.3824193852322837,85.65005322953448,0.047811484482405776,5.2666666667,12.14517427616405,2.489574677296589,0.16863545676577008,0.2021838958618161
0.055413501064977944,0.4738375507171614,0.024575747049029945,0.013721363476230191,79.26493542097181,-1.2154050109882564,85.66134974335304,0.04828043436439109,5.3333333333,12.148825867571542,2.520856550024233,0.17025995779088118,0.20459462909600892
0.056051136137541015,0.4783993252718163,0.024780439856284843,0.01384215016412213,80.07498028659006,-1.0462949353183804,85.67275501997699,0.048744511999238675,5.4,12.152520100975874,2.552445720072044,0.17189834092748318,0.20702501904235263
0.05668675337525665,0.4829129718570357,0.02498156432302083,0.013963638473948051,80.88527285140209,-0.8750687777018623,85.68426997701629,0.0492036728084125,5.4666666667,12.156256843385043,2.5843390084234983,0.17355037025123551,0.2094746799198496
0.05732032989597294,0.48737805317034777,0.025179091487662234,0.014085801040081397,81.69581594485749,-0.701706370536169,85.6958955162871,0.049657872778190656,5.5333333333,12.160035960276726,2.6165332065473006,0.17521580787277025,0.2119432230918971
0.05795184289100356,0.491794137377466,0.025372992906638678,0.014208610364779193,82.50661238738682,-0.5261877610926371,85.70763252368192,0.05010706846416831,5.6,12.163857315603124,2.649025076758657,0.17689441397194772,0.21443025716879868
0.058581269625948895,0.4961607981607371,0.02556324065848089,0.014332038827656098,83.31766499030012,-0.34849321344788775,85.71948186904206,0.05055121699568657,5.6666666667,12.167720771795858,2.6818113525838214,0.1785859468323903,0.21693538811220223
0.05920858744151447,0.5004776147669595,0.025749807347841342,0.014456058695278206,84.12897655568568,-0.16860321039083134,85.73144440603234,0.05099027608018706,5.7333333333,12.171626189770922,2.7148887391278707,0.18029016287628902,0.21945821934140894
0.05983377375432666,0.5047441720545718,0.025932666109439163,0.014580642130869494,84.94054987630916,0.013501544694953283,85.7435209720182,0.05142420400749246,5.8,12.17557342893369,2.748253913445668,0.18200681669947844,0.22199835184149389
0.06045680605774574,0.5089600605402015,0.026111790611928653,0.014705761204123645,85.7523877355131,0.19784012597367465,85.75571238794507,0.05185295965401269,5.8666666667,12.179562347183978,2.7819035249159727,0.1837356611067744,0.22455538427317603
0.06107766192267608,0.5131248764445714,0.02628715506169099,0.014831387901113553,86.5644929071166,0.38443138332482885,85.76801945822021,0.05227650248687685,5.9333333333,12.183592800921161,2.815834195618653,0.18547644714756964,0.22712891308437194
0.06169631899837358,0.5172382217377569,0.026458734206548425,0.014957494134290773,87.37686815531562,0.5732939405359492,85.78044297059685,0.05269479256799086,6.0,12.18766464504934,2.8500425207149576,0.18722892415168238,0.22971853262336342
0.0623127550132503,0.5212997041837905,0.026626503339400587,0.015084051752566685,88.18951623458335,0.7644461935208081,85.79298369606076,0.05310779055802087,6.0666666667,12.191777732982565,2.884525068830808,0.18899283976545228,0.23232383525350828
0.06292694777567635,0.525308937384607,0.026790438301782255,0.015211032551467172,89.00243988957111,0.9579063085632704,85.8056423887192,0.05351545772030241,6.1333333333,12.195931916650116,2.919278382443061,0.19076793998807898,0.23494441146941714
0.06353887517477856,0.5292655408233252,0.026950515487342123,0.015338408283352213,89.8156418550095,1.153692220586996,85.81841978569241,0.0539177559246752,6.2,12.200127046501827,2.9542989782687017,0.19255396920819778,0.2375798500145198
0.06414851518123668,0.533169139906861,0.02710671184524208,0.015466150667691678,90.62912485561,1.3518216314511833,85.83131660700738,0.054314647651244,6.2666666667,12.20436297151348,2.9895833476569234,0.19435067024068725,0.24022973799993905
0.0647558458480763,0.5370193660078676,0.027259004883476493,0.015594231401388442,91.44289160596685,1.552312008272549,85.84433355549419,0.05470609599406518,6.3333333333,12.208639539192228,3.0251279569840475,0.1961577843637034,0.24289366102458881
0.06536084531145901,0.5408158565059968,0.027407372672111026,0.015722622169139718,92.25694481045933,1.7551805817737252,85.85747131668484,0.05509206466475934,6.4,12.2129565955821,3.0609292480512384,0.19797505135593516,0.2455712032964101
0.06596349179146949,0.5445582548284775,0.02755179384644048,0.0158512946538274,93.07128716315438,1.9604443446582656,85.8707305587145,0.055472517996049846,6.4666666667,12.21731398526953,3.0969836384849714,0.1998022095340759,0.24826194775465601
0.0665637635928995,0.5482462104900077,0.027692247610065324,0.015980220546928103,93.88592134770965,2.1681200500124382,85.88411193222531,0.05584742094522772,6.5333333333,12.221711551388962,3.1332875221402032,0.20163899579050526,0.2509654761931352
0.06716163910602904,0.5518793791319527,0.02782871373788629,0.01610937155893336,94.70085003727691,2.378224209733985,85.8976160702727,0.056216739097542524,6.6,12.22614913562849,3.169837269506204,0.20348514563117628,0.2536813693843201
0.06775709680740424,0.5554574225608488,0.02796117257901679,0.016238719429770513,95.5160758944057,2.5907730929880253,85.9112435882342,0.056580438669519756,6.6666666667,12.230626578235558,3.2066292281150006,0.20534039321370204,0.2564092072042255
0.06835011526061212,0.5589800087862054,0.028089605059612582,0.01636823593921464,96.33160157094765,2.8057827246902716,85.92499508372084,0.056938486512204754,6.7333333333,12.235143718022718,3.2436597229523905,0.2072044713856365,0.25914856875795994
0.06894067311705242,0.5624468120576002,0.028213992685618396,0.016497892917281747,97.14742970796087,3.0232688840177335,85.93887113649113,0.057290850114332985,6.8,12.239700392373425,3.280925056871471,0.209077111722944,0.26189903250585195
0.06952874911670608,0.5658575129010688,0.028334317545431024,0.01662766225459369,97.96356293561492,3.2432471029470706,85.95287230836752,0.05763749760542739,6.8666666667,12.244296437247895,3.318421511008644,0.2109580445686519,0.2646601763900505
0.07011432208890064,0.569211798154777,0.02845056231247858,0.016757515912704857,98.78000387309615,3.4657326648207603,85.96699914315553,0.05797839775882238,6.9333333333,12.248931687189009,3.356145345202049,0.21284699907168061,0.2674315779614991
0.07069737095307234,0.5725093610039785,0.02856271024771547,0.016887425934381056,99.59675512851338,3.690740602941241,85.98125216656545,0.0583135199946151,7.0,12.253605975328268,3.3940927984123674,0.21474370322584585,0.27021281450717993
0.07127787471952504,0.575749901015249,0.02867074520203282,0.017017364453820766,100.41381929880404,3.918285699193185,85.99563188613661,0.058642834382543696,7.0666666667,12.258319133391806,3.432260089145966,0.2166478839090269,0.27300346317752616
0.07185581249018581,0.578933124169996,0.02877465161858388,0.017147303706809138,101.23119896964064,4.1483824826940605,86.01013879116432,0.05896631164479319,7.1333333333,12.26307099170644,3.470643415880316,0.21855926692249575,0.27580310111389666
0.07243116345935739,0.5820587428972394,0.028874414535024234,0.017277216040795053,102.04889671533772,4.381045228473126,86.02477335262942,0.05928392315872883,7.2,12.267861379205787,3.509238957491649,0.22047757703040133,0.27861130557600966
0.07300390691446698,0.5851264761056583,0.028970019585666286,0.01740707392488178,102.86691509875912,4.616287956179008,86.03953602313041,0.05959564095955713,7.2666666667,12.27269012343641,3.5480428736847984,0.22240253799940293,0.2814276540692293
0.07357402223681205,0.5881360492149027,0.029061453003547955,0.017536849959721657,103.6852566712258,4.854124428816007,86.05442723681834,0.05990143774291501,7.3333333333,12.277557050564042,3.5870513054251756,0.22433387263844734,0.28425172447160024
0.07414148890230259,0.5910871941861635,0.029148701622415066,0.01766651688730557,104.50392397242392,5.094568151509274,86.06944740933424,0.06020128686738693,7.4,12.282461985379829,3.6262603753728357,0.22627130283868388,0.28708309516052466
0.0747062864821999,0.5939796495520007,0.029231752878617262,0.017796047600637948,105.32291953031347,5.337632370298988,86.08459693774931,0.060495162356950516,7.4666666667,12.28740475130665,3.66566618831858,0.22821454961351156,0.2899213451389768
0.07526839464385214,0.5968131604454214,0.029310594812917166,0.01792541515328826,106.14224586103721,5.583330070963676,86.09987620050772,0.06078303890335043,7.5333333333,12.292385170405463,3.705264831622047,0.2301633331387527,0.2927660541611501
0.07582779315142617,0.5995874786282127,0.02938521607221247,0.018054592768810093,106.96190546883012,5.831673977872802,86.11528555737212,0.06106489186840138,7.6,12.29740306338172,3.7450523756517415,0.23211737279294717,0.29561680285743175
0.07638446186663614,0.6023023625185153,0.029455605911170787,0.018183553850019123,107.78190084592924,6.082676552868758,86.1308253493718,0.061340697286219714,7.6666666667,12.302458249591815,3.7850248742269557,0.23407638719776133,0.2984731728586029
0.07693838074946843,0.6049575772176452,0.029521754193776943,0.01831227198812149,108.60223447248396,6.3363499941783745,86.14649589875367,0.0616104318653844,7.7333333333,12.30755054704959,3.8251783650615234,0.23604009425850606,0.30133474691916035
0.07748952985890308,0.6075528945361525,0.029583651394792538,0.018440720971684265,109.4229088164667,6.59270623535407,86.16229750893578,0.06187407299102721,7.8,12.312679772432888,3.8655088702093665,0.23800821120475785,0.30420110903965825
0.07803788935363165,0.6100880930191196,0.029641288601127583,0.018568874795439987,110.24392633358414,6.851756944244775,86.17823046446364,0.06213159872685261,7.8666666667,12.31784574109015,3.906012396511777,0.23998045463107734,0.3070718445879708
0.07858343949277158,0.6125629579706929,0.029694657513123973,0.018696707668917446,111.06528946718872,7.113513521996714,86.19429503096926,0.062382987817087336,7.9333333333,12.323048267047058,3.9466849360463847,0.24195654053781918,0.3099465404193756
0.07912616063657676,0.6149772814778462,0.029743750445750592,0.018824194024891182,111.88700064819074,7.377987102084185,86.21049145513291,0.06262821968836003,8.0,12.328287163013243,3.987522466577764,0.24393618437202744,0.3128247849953606
0.07966603324714466,0.6173308624333739,0.029788560329709977,0.018951308527642447,112.70906229497082,7.645188549370431,86.22681996464759,0.06286727445151108,8.0666666667,12.333562240389016,4.028520952009621,0.2459191010684108,0.3157061685010609
0.08020303788911957,0.6196235065581093,0.02982908071245627,0.019078026081024654,113.53147681329285,7.915128459198702,86.24328076818621,0.06310013290333286,8.1333333333,12.33887330927216,4.0696763428385125,0.24790500509039148,0.3185902829612292
0.08073715523039239,0.6218550264223679,0.029865305759124373,0.01920432183632657,114.35424659621742,8.18781715651362,86.2598740553716,0.06332677652824059,8.2,12.344220178464768,4.110984576609053,0.2498936104712219,0.32147672235465036
0.08126836604279652,0.6240252414666121,0.029897230253370162,0.019330171199927065,115.17737402401559,8.46326469501294,86.27659999674914,0.0635471874998742,8.2666666667,12.349602655480128,4.152441578370544,0.25188463085516355,0.32436508272691034
0.0817966512028001,0.626133978021334,0.029924849598121632,0.019455549840735123,116.00086146408324,8.74148085632979,86.29345874376227,0.06376134868263104,8.3333333333,12.355020546549648,4.1940432611349845,0.25387777953872154,0.3272549623014326
0.08232199169219438,0.6281810693261558,0.02994815981624086,0.019580433697409666,116.8247112708559,9.022475149245503,86.31045042873063,0.06396924363312993,8.4,12.360473656629834,4.235785526336406,0.25587276951192967,0.3301459615886975
0.08284436859877853,0.6301663555481456,0.02996715755109673,0.019704798985353624,117.64892578572388,9.3062568089331,86.32757516483102,0.06417085660160687,8.4666666667,12.365961789409313,4.2776642642914835,0.25786931349967906,0.3330376834935635
0.08336376311704027,0.6320896837993436,0.029981840067048234,0.01982862220347732,118.47350733694805,9.592834796231527,86.3448330460811,0.06436617253324209,8.5333333333,12.371484747315899,4.31967535466136,0.25986712400308554,0.3359297334206105
0.0838801565488331,0.6339509081535012,0.02999220524983846,0.01995188014072651,119.29845823957604,9.882217796950728,86.36222414732592,0.06455517706941925,8.6,12.377042331523702,4.36181466691465,0.26186591334088877,0.33882171937743066
0.08439353030404921,0.635749889662028,0.02999825160689899,0.020074549882370684,120.12378079535884,10.174414221207602,86.37974852422698,0.06473785654891667,8.6666666667,12.38263434196029,4.40407806079155,0.263865393690878,0.3417132520757919
0.08490386590128886,0.6374864963691445,0.029999978267564856,0.020196608816047824,120.94947729266798,10.469432202792955,86.39740621325438,0.06491419800903066,8.7333333333,12.388260577313893,4.446461386769018,0.26586527713133795,0.34460394503060554
0.0854111449685257,0.6391606033262422,0.029997384983199902,0.020318034637561884,121.77555000641313,10.767279598569488,86.4151972316815,0.06508418918663152,8.8,12.393920835040646,4.488960486526961,0.26786527568250895,0.347493414656631
0.08591534924376804,0.6407720926054461,0.029990472127232604,0.020438805356429886,122.6020011979602,11.0679639879009,86.43312157758253,0.06524781851915211,8.8666666667,12.39961491137188,4.531571193415377,0.26986510134805564,0.35038128036285354
0.08641646057571643,0.642320853312378,0.029979240695102268,0.020558899301175798,123.42883311504998,11.371492672112158,86.45117922983268,0.0654050751455092,8.9333333333,12.405342601321465,4.574289332922406,0.2718644661565378,0.3532671646444758
0.0869144609244171,0.6438067815981228,0.029963692304115722,0.020678295124368695,124.25604799171713,11.677872673981012,86.46937014811132,0.06555594890695779,9.0,12.411103698693179,4.617110723143232,0.27386308220287797,0.3561506931724656
0.08740933236191122,0.6452297806703923,0.02994382919321439,0.02079697180740314,125.08364804820984,11.987110737260778,86.48769427290775,0.06570043034787883,9.0666666667,12.41689799608814,4.660031175249773,0.27586066168981904,0.35903149488060765
0.08790105707288051,0.6465897608038877,0.029919654222651925,0.020914908665020066,125.91163549090984,12.299213326234474,86.50615152552972,0.06583851071649997,9.1333333333,12.422725284912268,4.703046493961132,0.27785691696936665,0.3619092020500087
0.08838961735528848,0.6478866393498588,0.029891170873582316,0.02103208534956689,126.74001251225305,12.614186625300336,86.52474180811484,0.06597018196555002,9.2,12.428585355383793,4.746152478014724,0.2798515605842101,0.3647834503910101
0.08887499562101772,0.6491203407448577,0.0298583832475586,0.02114848185499574,127.56878129065053,12.932036538588761,86.54346500364463,0.06609543675284699,9.2666666667,12.434477996540812,4.789344920638048,0.28184430530911564,0.36765387912246605
0.08935717439650312,0.6502907965186895,0.029821296065942277,0.021264078520599392,128.3979439904102,13.25276868961073,86.56232097596134,0.06621426844181992,9.3333333333,12.44040299624888,4.832619610021039,0.2838348641922862,0.37052013104834747
0.08983613632336078,0.6513979453015551,0.02977991466922341,0.021378856034484504,129.22750276165877,13.57638842093773,86.58130956978763,0.06632667110196477,9.4,12.446360141208647,4.875972329788952,0.28582295059668233,0.37338185263163703
0.0903118641590131,0.6524417328303872,0.02973424501625162,0.021492795436782418,130.05745974026453,13.902900793913219,86.6004306107489,0.0664326395092342,9.4666666667,12.452349216963537,4.919398859475722,0.28780827824129723,0.37623869406548427
0.09078434077730936,0.6534221119543789,0.029684293683378025,0.02160587812259784,130.88781704776025,14.232310588395668,86.61968390539836,0.06653216914636172,9.5333333333,12.45837000790747,4.962894974997748,0.2897905612423807,0.3790903093415909
0.09125354916914234,0.6543390426397042,0.02963006786350823,0.021718085844696422,131.7185767912669,14.564622302533193,86.63906924124493,0.06662525620312011,9.6,12.464422297292625,5.00645644912804,0.2917695141546059,0.3819363563158044
0.0917194724430606,0.6551924919734293,0.029571575365066605,0.021829400715932198,132.5497410634179,14.899840152569817,86.65858638678382,0.06671189757651438,9.6666666667,12.470505867237234,5.050079051970687,0.2937448520121731,0.3847764967708983
0.0921820938258766,0.6559824341666141,0.029508824610871846,0.02193980521141652,133.3813119422836,15.23796807268336,86.67823509152988,0.06679209087090913,9.7333333333,12.476620498733439,5.093758551435582,0.2957162903698442,0.38761039647652135
0.09264139666327052,0.6567088505566049,0.029441824636924123,0.02204928217043024,134.21329149129656,15.579009714854992,86.69801508605369,0.06686583439809073,9.8,12.482765971655164,5.1374907137133565,0.29768354534390234,0.39043772524630377
0.09309736442038984,0.6573717296085172,0.029370585091103914,0.022157814798081252,135.04568175917726,15.922968448770453,86.71792608202026,0.06693312717726418,9.8666666667,12.488942064766048,5.181271303750464,0.2996463336530306,0.3932581569921098
0.09354998068244451,0.6579710669159073,0.029295116231782714,0.0222653866667099,135.87848477986037,16.269847361752944,86.73796777223066,0.06699396893498488,9.9333333333,12.495148555727408,5.225096085724365,0.3016043726591042,0.3960713697754303
0.09399922915529799,0.6585068652006354,0.029215428926345856,0.022371981717044884,136.71170257242147,16.619649258727716,86.75813983066624,0.06704836010502532,10.0,12.501385221106236,5.268960823518759,0.30355738040788977,0.39887704585591294
0.0944450936660538,0.6589791343119169,0.029131534649627623,0.02247758425911277,137.54533714100444,16.972376662218302,86.77844191253548,0.06709630182817672,10.0666666667,12.507651836383257,5.312861281198801,0.30550507566964613,0.40167487173703054
0.0948875581636377,0.6593878912245649,0.02904344548225889,0.02258217897290435,138.37939047474924,17.32803181237447,86.7988736543238,0.06713779595198581,10.1333333333,12.513948175960994,5.356793223486262,0.3074471779796213,0.4044645382088912
0.09532660671937553,0.6597331600364225,0.028951174108927547,0.022685750908801355,139.21386454772033,17.68661666703183,86.81943467384575,0.06717284503042675,10.2,12.520274013171903,5.400752416234567,0.3093834076784385,0.4072457403881979
0.09576222352756673,0.6600149719649856,0.02885473381655191,0.022788285487767443,140.0487613188356,18.048132901803108,86.84012457030012,0.06720145232350822,10.2666666667,12.526629120286529,5.444734626903662,0.311313485952367,0.41001817775536714
0.09619439290605326,0.6602333653432164,0.028754138492367423,0.022889768501307393,140.8840827317959,18.41258191020105,86.86094292432765,0.06722362179681571,10.3333333333,12.5330132685217,5.488735625034661,0.3132371348734705,0.41278155418882223
0.09662309929678413,0.6603883856145484,0.028649402621926955,0.022990186111198817,141.71983071501492,18.779964803793014,86.88188929807141,0.0672393581209891,10.4,12.53942622804877,5.532751182724208,0.3151540774396283,0.4155355779964757
0.09704832726637562,0.6604800853270836,0.028540541287014855,0.023089524849000884,142.55600718154994,19.150282412387103,86.90296323523988,0.0672486666711357,10.4666666667,12.545867768001889,5.576777075098511,0.3170640376144234,0.4182799619444215
0.0974700615066667,0.6605085241269821,0.02842757016347525,0.02318777161534474,143.39261402903287,19.523535284249956,86.92416426117258,0.0672515535261783,10.5333333333,12.552337656486314,5.620809080786984,0.3189667403668911,0.4210144232828602
0.09788828683527032,0.6604737687510449,0.028310505518954702,0.023284913679010474,144.22965313960196,19.899723686356037,86.94549188290851,0.06724802546813884,10.6,12.558835660586759,5.66484298239545,0.32086191171112277,0.4237386837692807
0.09830298819611978,0.6603758930184908,0.028189364210559745,0.023380938675795732,145.06712637983406,20.278847604668513,86.96694558925707,0.06723808998135729,10.6666666667,12.565361546375776,5.708874566978853,0.32274927874571974,0.4264524696889289
0.0987141506600109,0.660214977821929,0.028064163682429463,0.023475834607181154,145.90503560067734,20.66090674445159,86.9885248508717,0.06722175525164598,10.7333333333,12.571915078922183,5.752899626513419,0.3246285696930904,0.429155511872592
0.09912175942513937,0.6599911111175281,0.027934921963223544,0.02356958983879803,146.7433826373847,21.04590053061431,87.01022912032609,0.06719903016537922,10.8,12.578496022299518,5.796913958368214,0.3264995139385857,0.4318475457117323
0.09952579981763367,0.6597043879143807,0.027801657663526234,0.02366219309870371,147.58216930944786,21.433828108085788,87.03205783219303,0.0671699243085182,10.8666666667,12.585104139594527,5.840913365776049,0.3283618420694672,0.43452831117100665
0.09992625729208332,0.659354910263069,0.027664389973166417,0.02375363347547034,148.42139742053152,21.82468834222178,87.0540104031258,0.06713444796557143,10.9333333333,12.591739192915703,5.884893658303675,0.3302152859137023,0.43719755279820804
0.10032311743206246,0.6589427872434279,0.027523138658454294,0.023843900416092724,149.26106875840878,22.21847981924261,87.07608623194221,0.06709261211849013,11.0,12.598400943401842,5.928850652321213,0.33205957857858004,0.4398550197316706
0.10071636595064894,0.6584681349515111,0.02737792405933511,0.023932983723721206,150.10118509489652,22.615200846702344,87.09828469971114,0.06704442844549932,11.0666666667,12.605089151230645,5.972780171470775,0.3338944544891437,0.44250046570517926
0.10110598869093854,0.6579310764857592,0.027228767086460208,0.024020873555225367,150.9417481857918,23.01484945398918,87.12060516984167,0.06698990931986372,11.1333333333,12.611803575627356,6.016678047134209,0.3357196494264327,0.4451336490504283
0.10149197162655471,0.6573317419323716,0.027075689218175943,0.024107560418594763,151.7827597708085,23.417423392856982,87.14304698817473,0.06692906780858915,11.2,12.618543974873418,6.060540118899927,0.33753490056553004,0.44775433269707515
0.10187430086215342,0.6566702683498855,0.02691871249743083,0.024193035170182595,152.62422157351477,23.82292013798794,87.16560948307736,0.06686191767105888,11.2666666667,12.625310106315188,6.104362235028751,0.33933994651340843,0.4503622841704359
0.10225296263392356,0.6559467997529614,0.026757859528601387,0.024277289011798552,153.46613530127104,24.23133688758619,87.18829196553935,0.0667884733576052,11.3333333333,12.632101726372666,6.148140252918743,0.34113452734657046,0.4529572755868729
0.10262794331008214,0.6551614870953796,0.02659315347423719,0.02436031348765705,154.3085026451684,24.642670564002447,87.21109372927252,0.06670875000801588,11.4,12.638918590548261,6.191870039568941,0.34291838464847724,0.45553908364692414
0.10299922939136537,0.6543144882522464,0.026424618051725454,0.024442100481186873,155.15132527996786,25.05691781438948,87.23401405081235,0.06662276344997572,11.4666666667,12.6457604534356,6.235547472041966,0.3446912615467597,0.4581074896262274
0.10336680751151442,0.6534059680014158,0.02625227752987579,0.0245226422117087,155.99460486404,25.47407501138839,87.25705218962224,0.06653053019744297,11.5333333333,12.652627068728357,6.279168437925449,0.34645290275020807,0.46066227936429144
0.10373066443775665,0.6524360980041255,0.02607615672542554,0.02460193123098657,156.83834303930527,25.894138253845643,87.2802073882001,0.06643206744896048,11.6,12.659518189229125,6.32272883579221,0.34820305458553313,0.4632032432511701
0.10409078707128201,0.6514050567848512,0.025896280999466215,0.024679960419659596,157.68254143117485,26.317103367560687,87.30347887218741,0.06632739308590167,11.6666666667,12.66643356685831,6.366224575659152,0.34994146503389484,0.4657301762120936
0.10444716244771461,0.6503130297103811,0.025712676253791523,0.02475672298356012,158.52720164849225,26.742965906064153,87.32686585048077,0.0662165256706512,11.7333333333,12.673372952663062,6.409651579444809,0.3516678837671926,0.4682428776901141
0.10479977773757938,0.6491602089681134,0.02552536892716757,0.024832212449924534,159.37232528347522,27.171721151426496,87.35036751534582,0.06609948444472014,11.8,12.680336096826244,6.453005781425501,0.35338206218411206,0.47074115162682306
0.10514862024676395,0.6479467935435775,0.025334385991525734,0.024906422663502892,160.2179139116586,27.603364115097015,87.3739830425335,0.0659762893267956,11.8666666667,12.687322748675415,6.496283128690042,0.35508375344592324,0.47322480644119835
0.10549367741697567,0.6466729891971846,0.025139754948078734,0.0249793477825735,161.0639690918375,28.037889538773115,87.39771159139876,0.0658469609107249,11.9333333333,12.694332656691866,6.539479581592947,0.35677271251202497,0.47569365500663924
0.1058349368261937,0.6453390084402071,0.02494150382336049,0.025050982274868516,161.91049236601123,28.47529189529975,87.42155230502168,0.06571152046343391,12.0,12.701365568519664,6.582591114206092,0.35844869617523023,0.4781475146262495
0.10617238618911612,0.6439450705099914,0.02473966116519041,0.025121320913416584,162.7574852593277,28.91556538959891,87.44550431033075,0.0655699899227796,12.0666666667,12.708421230974745,6.625613714768773,0.3601114630967876,0.4805862070064276
0.10650601335760235,0.6424914013444074,0.02453425603856246,0.0251903587723085,163.60494928002865,29.35870395962907,87.46956671822868,0.0654223918953368,12.1333333333,12.715499390054019,6.668543386136105,0.36176077384113364,0.4830095582288243
0.10683580632111034,0.6409782335555353,0.024325318021459947,0.025258091222391758,164.45288591939524,29.804701277374466,87.4937386237204,0.06526874965411886,12.2,12.722599790944525,6.711376146225732,0.3633963909103711,0.4854173987207275
0.10716175320712902,0.6394058064025949,0.02411287720059629,0.02532451392689977,165.30129665169449,30.253550749864083,87.51801910604337,0.06510908713623226,12.2666666667,12.729722178032599,6.754108028462768,0.3650180787784685,0.48780956322393476
0.10748384228160571,0.6377743657641199,0.023896964167082594,0.025389622837021553,166.150182934126,30.705245520220274,87.54240722880016,0.06494342894046497,12.3333333333,12.736866294913074,6.79673508222294,0.3666256039251749,0.4901858907621752
0.10780206194936849,0.6360841641093795,0.02367761001202261,0.025453414187417433,166.99954620676974,31.159778468736835,87.56690204009331,0.06477180032480861,12.4,12.744031884398515,6.839253373273881,0.36821873486964707,0.49254622460713904
0.1081164007545437,0.6343354604690521,0.0234548463220356,0.02551588449168634,167.84938789253397,31.617142213986448,87.59150257266242,0.0645942272039141,12.4666666667,12.751218688528473,6.881658984214507,0.3697972422037819,0.4948904122431764
0.10842684738096832,0.6325285204051525,0.023228705174707997,0.025577030537790126,168.69970939710421,32.07732911395735,87.61620784402339,0.06441073614648082,12.5333333333,12.758426448578776,6.923948014912444,0.37136089862525096,0.4972183053307255
0.10873339065259731,0.6306636159802183,0.022999219133974243,0.025636849383440193,169.55051210889252,32.54033126721908,87.64101685660991,0.0642213543725792,12.6,12.765654905070841,6.9661165829394545,0.37290947897023147,0.4995297596685296
0.10903601953390597,0.6287410257257572,0.022766421245427663,0.025695338351451727,170.40179739898758,33.00614051411722,87.6659285979171,0.06402610975090658,12.6666666667,12.772903797781014,7.008160824004802,0.37444276024582973,0.5018246351547027
0.10933472313028732,0.6267610346099589,0.022530345031561923,0.025752495025070505,171.25356662110528,33.47474843799693,87.69094204064737,0.06382503079597618,12.7333333333,12.780172865749941,7.050076892386519,0.37596052166219157,0.5041027957467021
0.1096294906884441,0.6247239340046771,0.022291024486943888,0.02580831724327737,172.10582111154,33.94614636645517,87.71605614285826,0.06361814666523925,12.8,12.78746184729196,7.091860961360516,0.3774625446642957,0.5063641094202682
0.10992031159677608,0.622630021651683,0.02204849407331844,0.025862803096075172,172.95856218911655,34.420325372621434,87.74126984811252,0.06340548715614025,12.8666666667,12.794770480004523,7.133509223627494,0.3789486129634253,0.5086084481273869
0.11020717538576193,0.6204796016281954,0.021802788714646047,0.025915950919762884,173.81179115514263,34.89727627646694,87.76658208563025,0.06318708270310466,12.9333333333,12.80209850077764,7.175017891737607,0.3804185125683132,0.5108356877533355
0.11049007172833628,0.618272984311691,0.021553943792073788,0.025967759292201523,174.66550929336202,35.37698964614195,87.79199177044305,0.06296296437445993,13.0,12.809445645803358,7.21638319851282,0.3818720318159563,0.5130457080728654
0.1107689904402613,0.6160104863440004,0.0213019951388405,0.026018227028076362,175.5197178699083,35.859455799341276,87.81749780355032,0.06273316386928898,13.0666666667,12.816811650585247,7.2576013974669324,0.3833089614020946,0.5152383927055807
0.11104392148049351,0.6136924305946898,0.021046979035116892,0.02606735317415967,176.3744181332594,36.344664804697615,87.84309907207744,0.06249771351421627,13.1333333333,12.824196249947931,7.2986687632231995,0.3847290944113506,0.5174136290705657
0.11131485495154517,0.6113191461237384,0.020788932202781236,0.026115137004578324,177.22961131419254,36.8326064832027,87.86879444943604,0.06225664626012658,13.2,12.83159917804663,7.339581591929512,0.3861322263470251,0.5195713083403166
0.11158178109984056,0.6088909681435105,0.020527891800131478,0.02616157801609019,178.08529862573997,37.323270409656054,87.89458279548629,0.062009995678816196,13.2666666667,12.839020168376733,7.380336201671095,0.38751815516054383,0.5217113253940329
0.11184469031606716,0.6064082379800291,0.02026389541653453,0.026206675923373363,178.9414812631453,37.81664591414111,87.920462956701,0.06175779595957642,13.3333333333,12.846458953783388,7.4209289328806625,0.3888866812805526,0.5238335787703171
0.11210357313552159,0.6038713030335561,0.019996981067013444,0.026250430654331917,179.79816040382048,38.31272208352867,87.94643376633175,0.06150008190570964,13.4,12.853915266471127,7.461356148745998,0.3902376076416549,0.5259379706193388
0.11235842023845033,0.6012805167384818,0.019727187186773323,0.026292842345421914,180.6553372073033,38.811487763007364,87.9724940445769,0.06123688893097747,13.4666666667,12.861388838013495,7.501614235614902,0.3915707397127891,0.5280244066545119
0.11260922245038517,0.5986362385225288,0.019454552625666723,0.026333911337001085,181.51301281521583,39.312931557641114,87.9986425987515,0.06096825305598129,13.5333333333,12.868879399362726,7.5416996033974675,0.3928858855252407,0.5300927961037342
0.11285597074247358,0.595938833765276,0.019179116642599334,0.02637363816870569,182.37118835122325,39.81704183395322,88.02487822345901,0.0606942109044749,13.6,12.876386680859419,7.581608685965636,0.3941828557002851,0.5321430516602401
0.1130986562318037,0.5931886737560061,0.018900918899876766,0.026412023574857658,183.2298649209933,40.323806721537075,88.05119970076491,0.060414799699609424,13.6666666667,12.88391041224225,7.621337941549988,0.3954614634764584,0.5341750894331126
0.1133372701817241,0.5903861356508818,0.018619999457493243,0.026449068479905177,184.08904361215662,40.8332141146932,88.077605800372,0.0601300572601102,13.7333333333,12.891450322657702,7.660883853133721,0.39672152473645017,0.536188828897502
0.11357180400215837,0.5875316024294567,0.018336398767363062,0.0264847739938997,184.94872549426753,41.345251674092445,88.10409527979766,0.05984002199638603,13.8,12.899006140669817,7.70024292884378,0.39796285803361636,0.5381841928445964
0.11380224924991432,0.5846254628505226,0.0180501576674955,0.02651914140801217,185.80891161876553,41.859906828465206,88.13066688455272,0.059544732906570245,13.8666666667,12.906577594269962,7.739411702339077,0.3991852846181072,0.5401611073313893
0.11402859762898788,0.5816681114073042,0.017761317376114354,0.02655217219009118,186.6696030189374,42.377166776316365,88.15731934832209,0.05924422957249422,13.9333333333,12.914164410886622,7.778386733195779,0.4003886284626069,0.5421195016302867
0.11425084099086188,0.5786599482819984,0.017469919485722456,0.026583867980265588,187.5308007098801,42.89701848766588,88.1840513931471,0.05893855215559266,14.0,12.921766317395221,7.817164607289599,0.4015727162876812,0.5440593081785957
0.11446897133479929,0.5756013792996704,0.01717600595711249,0.026614230586594075,188.3925056884642,43.4194487058147,88.21086172960959,0.05862774139274128,14.0666666667,12.929383040127945,7.855741937175066,0.4027373775867294,0.5459804625279375
0.11468298080813127,0.5724928158815077,0.016879619113324695,0.02664326198076392,189.25471893329794,43.94444394913592,88.2377490570175,0.05831183859202652,14.1333333333,12.937014304883599,7.894115362461711,0.4038824446505369,0.5478829032936221
0.11489286170653991,0.5693346749974405,0.016580801633552435,0.026670964293841155,190.11744140469196,44.47199051289089,88.26471206359223,0.05799088562844765,14.2,12.944659836937474,7.932281550187144,0.40500775259142524,0.5497665721040247
0.11509860647433552,0.5661273791181287,0.01627959654699642,0.026697339812074162,190.9806740446249,45.00207447107003,88.2917494266575,0.05766492493955082,14.2666666667,12.952319361051243,7.970237195186974,0.4061131393669954,0.551631413550002
0.11530020770472872,0.5628713561663276,0.015976047226668635,0.02672239097275269,191.84441777670935,45.53468167825831,88.31885981282984,0.05733399952099579,14.3333333333,12.959992601482865,8.007979020461516,0.4071984458034618,0.553477375134383
0.11549765814009694,0.5595670394676324,0.015670197383146695,0.026746120360123953,192.70867350615868,46.069797771525,88.34604187821057,0.056998152922054825,14.4,12.967679281996514,8.04550377753927,0.40826351561857305,0.5553044072215708
0.11569095067224583,0.5562148677006112,0.015362091058279556,0.026768530701367706,193.57344211975433,46.60740817233755,88.37329426857933,0.05665742924104427,14.4666666667,12.97537912587252,8.082808246837113,0.4093081954441162,0.5571124629872891
0.11588007834266514,0.5528152848463275,0.015051772618845589,0.026789624862631665,194.438724485814,47.147498088499354,88.40061561958906,0.05631187312068849,14.5333333333,12.983091855917337,8.119889238017153,0.41033233484800147,0.5589014983685052
0.11606503434277915,0.5493687401372636,0.014739286750163859,0.02680940584512891,195.30452145416035,47.690052516111265,88.42800455696253,0.055961529743416845,14.6,12.990817194473514,8.156743590340241,0.4113357863559245,0.5606714720135632
0.11624581201419182,0.5458756880056452,0.014424678449659459,0.026827876781298485,196.17083385609047,48.23505624155648,88.45545969669016,0.05560644482659316,14.6666666667,12.9985548634297,8.193368173016058,0.41231840547260207,0.5624223452325551
0.11642240484892652,0.542336588031179,0.014107993020384032,0.02684504093103051,197.0376625043458,48.782493843508675,88.48297964522934,0.0552466646176786,14.7333333333,13.006304584230646,8.229759885549768,0.41328005070257934,0.5641540819479627
0.11659480648966027,0.538751904888201,0.013789276064492165,0.026860901677956947,197.90500819308306,49.33234969496318,88.5105629997051,0.0548822358893272,14.8,13.014066077887241,8.26591565808518,0.4142205835706049,0.5658666486455941
0.1167630107299526,0.535122108292252,0.013468573476674755,0.026875462525809014,198.77287169784552,49.884607965290826,88.53820834811218,0.05451320593441528,14.8666666667,13.021839064986551,8.301832451744394,0.4151398686415711,0.5675600143258461
0.11692701151446905,0.5314476729460764,0.01314593143755031,0.026888727094842184,199.64125377553512,50.439252622314434,88.56591426951823,0.05413962256100392,14.9333333333,13.029623265701881,8.337507258963878,0.4160377735400161,0.569234150455316
0.11708680293919908,0.527729078485058,0.012821396407014905,0.026900699118329718,200.51015516438525,50.996267434407464,88.59367933426853,0.05376153408723548,15.0,13.037418399802846,8.372937103826951,0.4169141689691861,0.5708890309187872
0.11724237925166867,0.5239668094220927,0.012495015117552157,0.02691138243912529,201.37957658393418,51.55563597261478,88.62150210419182,0.053378989336163744,15.0666666667,13.04522418666546,8.408119042392622,0.41776892872965377,0.5725246319716151
0.11739373485114735,0.5201613550919116,0.012166834567503764,0.026920781006295566,202.2495187349991,52.11734161279523,88.64938113280739,0.05299203763051871,15.1333333333,13.053040345282238,8.44305016302076,0.41860192973749055,0.5741409321925328
0.11754086428884988,0.5163132095948526,0.01183690201430184,0.026928898871823127,203.1199822996509,52.68136753778571,88.67731496553337,0.052600728787405335,15.2,13.060866594272314,8.477727586693556,0.4194130520419908,0.5757379124369006
0.11768376226813243,0.5124228717400947,0.011505264967663926,0.026935740187380385,203.9909679411897,53.2476967395866,88.70530213989619,0.0522051131129374,15.2666666667,13.06870265189157,8.512148467333212,0.42020217884294425,0.577315555790418
0.11782242364468315,0.5084908449883557,0.01117197118275167,0.02694130920117476,204.86247630412083,53.81631202156824,88.7333411857412,0.05180524139680614,15.3333333333,13.076548236042779,8.546309992115885,0.4209691965074552,0.5788738475233197
0.11795684342670748,0.5045176373940625,0.010837068653294172,0.02694561025486553,205.73450801413176,54.38719600069816,88.76143062544432,0.05140116490678426,15.4,13.084403064285757,8.580209381781776,0.42171399458630526,0.5804127750450722
0.11808701677510777,0.500503761547,0.010500605604676964,0.026948647780552604,206.60706367806952,54.96033110978894,88.78956897412485,0.05099293538316561,15.4666666667,13.092266853847537,8.61384389094138,0.4224364658298582,0.5819323278595903
0.11821293900365754,0.49644973451344654,0.01016263048699764,0.026950426297837317,207.48014388391886,55.53569959976625,88.8177547398593,0.05058060503314087,15.5333333333,13.100139321632545,8.647210808377848,0.42313650620350335,0.5834324975209891
0.11833460557917015,0.4923560777767989,0.009823191968089133,0.02695095041095549,208.35374920078104,56.11328354195702,88.84598642389616,0.050164226525109504,15.6,13.108020184232789,8.68030745734541,0.42381401490263654,0.5849132775898875
0.11845201212166204,0.4882233171776992,0.009482338926511614,0.026950224805982657,209.22788017885338,56.693064830397326,88.87426252087182,0.04974385298292852,15.6666666667,13.115909157938066,8.713131195863864,0.42446889436717583,0.5863746635902779
0.11856515440451033,0.4840519828536646,0.00914012044451408,0.026948254248111533,210.10253734940952,57.27502518415976,88.90258151902725,0.049319537980098346,15.7333333333,13.123805958746177,8.745679417009045,0.42510105029560996,0.5878166529669755
0.11867402835460511,0.47984260917823085,0.008796585800966589,0.026945043579001637,210.97772122478017,57.85914614970004,88.93094190042572,0.048891335533886165,15.8,13.131710302373143,8.77794954919929,0.42571039165857755,0.5892392450436618
0.11877863005249589,0.47559573469961575,0.008451784464264185,0.026940597714200862,211.85343229833472,58.44540910322261,88.9593421411714,0.048459300099387405,15.8666666667,13.13962190426345,8.80993905647784,0.4262968307119753,0.5906424409815318
0.11887895573253286,0.4713119020789076,0.00810576608520354,0.02693492164063885,212.72967104446352,59.03379525306491,88.98778071162879,0.04802348656352552,15.9333333333,13.147540479600282,8.841645438791147,0.42686028300959294,0.5920262437385595
0.11897500178300237,0.4669916580277879,0.007758580489833324,0.02692802041419193,213.60643791856072,59.62428564210005,89.01625607664295,0.04758395023899074,16.0,13.155465743315785,8.873066232263074,0.42740066741527316,0.5933906580293884
0.11906676474625698,0.46263555324579514,0.0074102776722793345,0.026919899157319307,214.48373335700794,60.21686115015765,89.04476669576061,0.047140746858118275,16.0666666667,13.163397410101318,8.904199009464927,0.4279179061145954,0.5947356902858603
0.1191542413188399,0.45824414235713506,0.007060907787545434,0.026910563056770094,215.36155777715857,60.81150249646252,89.07331102345196,0.04669393256670644,16.1333333333,13.171335194417734,8.935041379681314,0.4284119246260807,0.5960613486181885
0.119237428351604,0.45381798384704586,0.006710521144291317,0.026900017361360894,216.23991157732266,61.40819024209096,89.10188750933324,0.04624356391777512,16.2,13.179278810505657,8.96559098917179,0.42888265181191704,0.5973676427767861
0.11931632284982507,0.4493576399977275,0.006359168197588148,0.026888267379823465,217.1187951367527,62.006904792444296,89.1304945983899,0.045789697865265544,16.2666666667,13.187227972395764,8.99584552142826,0.42933001988820313,0.5986545841147538
0.1193909219733097,0.4448636768238369,0.006006899541653128,0.026875318478721905,217.99820881562988,62.60762639973951,89.15913073120068,0.04533239175768129,16.3333333333,13.195182393919085,9.025802697428109,0.429753964434709,0.5999221855510378
0.11946122303649749,0.44033666400756405,0.0056537659025639704,0.02686117608043898,218.8781529550511,63.21033516551655,89.18779434416197,0.0448717033316719,16.4,13.203141788717305,9.055460275883032,0.4301544244041525,0.6011704615342598
