ax,ay,az,pitch_rad,px,py,pz,roll_rad,time_s,vx,vy,vz,yaw_rad
0.0,0.08,0.18,0.02849110833620022,0.0,0.0,90.0,0.008157548749343706,0.0,14.0,1.0,0.4,0.07130746478529032
0.000779994507511603,0.07999879000305021,0.18,0.029131207293577027,0.7000000000000001,0.050100000000000006,90.020225,0.008157425372203417,0.05,14.0,1.004,0.40900000000000003,0.07159172296528506
0.0015599560603712917,0.07999516004880314,0.18,0.02977117147860006,1.4000009749931346,0.10039999848750382,90.0409,0.008157055244513205,0.1,14.000038999725376,1.0079999395001524,0.41800000000000004,0.07187576572214521
0.002339851705319481,0.07998911024706463,0.18,0.03041099494187254,2.100004874924479,0.15089998941257243,90.06202499999999,0.008156438377464938,0.15,14.000116997528394,1.0119996975025927,0.42700000000000005,0.07215958207456487
0.003119648491881185,0.07998064078084074,0.18,0.031050671744359864,2.8000136496155306,0.2015999606755109,90.08359999999999,0.008155574789711349,0.2,14.00023399011366,1.015999153014946,0.43600000000000005,0.07244316105601901
0.0038993134737581705,0.07996975190633215,0.18,0.03169019595799359,3.5000292486818285,0.2524998941272342,90.10562499999999,0.008154464507365474,0.25,14.000389972538255,1.0199981850539879,0.44500000000000006,0.07272649171550477
0.004678813710220932,0.0799564439529265,0.18,0.03232956166627371,4.200053621450584,0.30359976556981655,90.12809999999999,0.008153107563999874,0.3,14.000584938211942,1.0239966726493044,0.45400000000000007,0.07300956311828066
0.005458116267500434,0.07994071732318837,0.18,0.0329687629648692,4.90008871687832,0.3548995447572229,90.15102499999999,0.008151504000645614,0.35,14.000818878897453,1.0279944948469506,0.4630000000000001,0.07329236434660374
0.006237188220179555,0.07992257249284711,0.18,0.03360779396221668,5.6001364834685265,0.40639919539622443,90.17439999999999,0.008149653865791027,0.4,14.001091784710828,1.03199153071311,0.4720000000000001,0.07357488450046473
0.007015996652584187,0.07990201001078244,0.18,0.03424664878011715,6.300198869189344,0.45809867514749597,90.198225,0.00814755721538026,0.45,14.001403644121838,1.0359876593377524,0.4810000000000001,0.07385711269832076
0.0077945086601739115,0.07987903049900788,0.18,0.03488532155433059,7.0002778213912515,0.5099979356268971,90.2225,0.008145214112811577,0.5,14.001754443954468,1.0399827598382916,0.4900000000000001,0.07413903807782588
0.008572691350932218,0.07985363465265191,0.18,0.035523806435168524,7.7003752867248005,0.5620969224069354,90.247225,0.008142624628935459,0.55,14.002144169387476,1.0439767113632419,0.4990000000000001,0.07442064979655895
0.009350511846756176,0.07982582323993694,0.18,0.03616209758808421,8.400493211058363,0.6143955750184134,90.2724,0.008139788842052458,0.6,14.002572803955022,1.0479693930958744,0.5080000000000001,0.07470193703274916
0.010127937284845543,0.0797955971021561,0.18,0.0368001891942606,9.100633539395924,0.666893826952257,90.29802500000001,0.008136706837910847,0.65,14.00304032954736,1.0519606842578713,0.5170000000000001,0.07498288898599861
0.010904934819091211,0.07976295715364774,0.18,0.03743807545119575,9.800798215794897,0.7195916056615282,90.32410000000002,0.008133378709704028,0.7,14.003546726411603,1.055950464112979,0.5260000000000001,0.07526349487800232
0.011681471621462932,0.07972790438176781,0.18,0.038075750573285834,10.500989183284002,0.7724888325636192,90.35062500000002,0.008129804558067723,0.75,14.004091973152557,1.0599386119706615,0.5350000000000001,0.07554374395326519
0.012457514883396326,0.07969043984686001,0.18,0.03871320879240537,11.201208383781156,0.8255854230426295,90.37760000000003,0.00812598449107695,0.8,14.00467604673363,1.06392500718975,0.5440000000000002,0.07582362547981603
0.013233031817179013,0.07965056468222365,0.18,0.03935044435848487,11.901457758011441,0.8788812864519255,90.40502500000002,0.00812191862424275,0.85,14.0052989224778,1.0679095291820928,0.5530000000000002,0.07610312874991855
0.014007989657335901,0.0796082800940794,0.18,0.0399874515400856,12.601739245425101,0.932376326116883,90.43290000000002,0.008117607080508717,0.9,14.00596057406866,1.071892057416204,0.5620000000000002,0.07638224308077901
0.01478235566201353,0.07956358736153285,0.18,0.04062422462497145,13.302054784115604,0.9860704393378108,90.46122500000001,0.008113049990247293,0.95,14.006660973551526,1.075872471420908,0.5710000000000002,0.07666095781525056
0.015556097114363383,0.07951648783653574,0.18,0.041260757920677876,14.002406310737758,1.0399635173930581,90.49000000000001,0.008108247491255827,1.0,14.007400091334626,1.0798506507889847,0.5800000000000002,0.07693926232253437
0.016329181323924205,0.07946698294384513,0.18,0.041897045755077654,14.702795760425882,1.094055445542303,90.519225,0.008103199728752434,1.05,14.008177896190343,1.0838264751808115,0.5890000000000002,0.07721714599887695
0.017101575628003136,0.07941507418098023,0.18,0.04253308247694357,15.403225066712054,1.1483461030300235,90.5489,0.00809790685537161,1.1,14.00899435525654,1.0877998243280038,0.5980000000000002,0.07749459826826414
0.017873247393055732,0.07936076311817716,0.18,0.043168862456507785,16.103696161444415,1.2028353630891497,90.579025,0.008092369031159632,1.15,14.00984943403794,1.0917705780370528,0.6070000000000002,0.07777160858311119
0.018644164016064706,0.07930405139834142,0.18,0.04380438008601795,16.80421097470555,1.2575230929449002,90.6096,0.008086586423569736,1.2,14.010743096407593,1.0957386161929616,0.6160000000000002,0.0780481664249491
0.019414292925917412,0.07924494073699824,0.18,0.044439629780289716,17.50477143473095,1.312409153818796,90.640625,0.008080559207457075,1.25,14.011675304608396,1.0997038187628787,0.6250000000000002,0.07832426130510714
0.020183601584781972,0.07918343292224057,0.18,0.04507460597725596,18.205379467827527,1.3674934009328614,90.6721,0.008074287565073427,1.3,14.012646019254692,1.1036660657997286,0.6340000000000002,0.07859988276539114
0.020952057489481986,0.07911952981467517,0.18,0.045709303138512264,18.906036998292244,1.4227756835140006,90.704025,0.00806777168606173,1.35,14.01365519933393,1.1076252374458406,0.6430000000000002,0.07887502037875797
0.021719628172869793,0.07905323334736614,0.18,0.04634371574985876,19.6067459483308,1.478255844798561,90.7364,0.008061011767450344,1.4,14.014702802208404,1.1115812139365744,0.6520000000000002,0.07914966374998561
0.022486281205198203,0.07898454552577656,0.18,0.046977838321838196,20.30750823797644,1.533933722037074,90.769225,0.008054008013647121,1.45,14.015788783617047,1.1155338756039428,0.6610000000000003,0.07942380251633906
0.02325198419549063,0.07891346842770781,0.18,0.04761166539027025,21.008325785008797,1.5898091464991781,90.80250000000001,0.008046760636433241,1.5,14.016913097677307,1.1194831028802317,0.6700000000000003,0.07969742634823175
0.024016704792909654,0.07884000420323668,0.18,0.04824519151678178,21.709200504872904,1.6458819434787244,90.83622500000001,0.00803926985495683,1.55,14.018075696887081,1.123428776301617,0.6790000000000003,0.07997052494988266
0.024780410688123783,0.07876415507465036,0.18,0.048878411289333214,22.41013431059825,1.7021519322990593,90.87040000000002,0.008031535895726347,1.6,14.019276532126726,1.1273707765117789,0.6880000000000003,0.08024308805996871
0.025543069614672547,0.0786859233363792,0.18,0.049511319322740804,23.111129112717947,1.7586189263184915,90.90502500000002,0.008023558992603763,1.65,14.020515552661132,1.1313089842655113,0.6970000000000003,0.08051510545227267
0.026304649350329754,0.07860531135492732,0.18,0.050143910259194714,23.81218681918802,1.8152827329359376,90.94010000000003,0.008015339386797516,1.7,14.021792706141866,1.1352432804323302,0.7060000000000003,0.08078656693632615
0.02706511771846485,0.078522321568801,0.18,0.05077617876877293,24.5133093353068,1.8721431535967477,90.97562500000004,0.008006877326855217,1.75,14.023107938609384,1.1391735460000767,0.7150000000000003,0.08105746235804792
0.027824442589402417,0.07843695648843496,0.18,0.05140811954995087,25.214498563634418,1.9291999837987126,91.01160000000003,0.007998173068656191,1.8,14.024461194495307,1.1430996620785168,0.7240000000000003,0.08132778160037732
0.028582591881779605,0.07834921869611637,0.18,0.05203972733010655,25.915756403912418,1.986453013098249,91.04802500000002,0.00798922687540373,1.85,14.025852416624778,1.1470215099029386,0.7330000000000003,0.08159751458390255
0.029339533563901593,0.07825911084590675,0.18,0.052670996866021405,26.61708475298351,2.043902025116766,91.08490000000002,0.007980039017617183,1.9,14.027281546218866,1.1509389708377444,0.7420000000000003,0.08186665126748408
0.030095235655094914,0.0781666356635617,0.18,0.05330192294437654,27.318485504711404,2.1015467975472104,91.12222500000001,0.007970609773123784,1.95,14.028748522897061,1.1548519263800399,0.7510000000000003,0.08213518164887273
0.030849666227058613,0.07807179594644845,0.18,0.05393250038224442,28.019960549900826,2.159387102160792,91.16000000000001,0.007960939427050288,2.0,14.030253284679816,1.158760258163218,0.7600000000000003,0.08240309576532268
0.03160279340521327,0.07797459456346117,0.18,0.05456272402757593,28.7215117762176,2.217422704813886,91.19822500000001,0.007951028271814367,2.05,14.031795767991168,1.1626638479605405,0.7690000000000003,0.08267038369419905
0.03235458537004762,0.07787503445493432,0.18,0.05519258875968265,29.423141068108915,2.2756533654551174,91.2369,0.007940876607115798,2.1,14.033375907661428,1.1665625776887134,0.7780000000000004,0.0829370355535801
0.03310501035846299,0.07777311863255358,0.18,0.055822089489714434,30.124850306723697,2.3340788381326214,91.276025,0.00793048473992743,2.15,14.034993636929931,1.17045632941146,0.7870000000000004,0.08320304150285412
0.03385403666511527,0.0776688501792648,0.18,0.056451221161132104,30.826641369833144,2.392698871001485,91.3156,0.007919852984485923,2.2,14.036648887447853,1.1743449853430876,0.7960000000000004,0.08346839174331055
0.03460163264375439,0.07756223224918075,0.18,0.05707997875017524,31.528516131751367,2.451513206331364,91.355625,0.00790898166228228,2.25,14.03834158928111,1.178228427852051,0.8050000000000004,0.08373307651872566
0.03534776670856149,0.07745326806748568,0.18,0.05770835726632501,32.230476463256224,2.510521580514278,91.3961,0.007897871102052145,2.3,14.040071670913298,1.18210653946451,0.8140000000000004,0.08399708611594246
0.036092407335483294,0.07734196093033777,0.18,0.05833635175276195,32.93252423151028,2.5697237240725883,91.437025,0.00788652163976591,2.35,14.041839059248726,1.1859792028678844,0.8230000000000004,0.08426041086544495
0.036835523063564114,0.07722831420476944,0.18,0.05896395728681872,33.63466129998188,2.6291193616671453,91.47840000000001,0.007874933618618562,2.4,14.043643679615501,1.1898463009144014,0.8320000000000004,0.08452304114192637
0.03757708249627496,0.07711233132858548,0.18,0.05959116898042759,34.336889528366484,2.6887082121056216,91.52022500000001,0.007863107389019354,2.45,14.045485455768679,1.19370771662464,0.8410000000000004,0.08478496736485183
0.03831705430284011,0.07699401581025904,0.18,0.06021798198056294,35.03921077250804,2.748489988351014,91.56250000000001,0.007851043308581232,2.5,14.047364309893492,1.1975633331910691,0.8500000000000004,0.08504617999901466
0.03905540721956084,0.07687337122882552,0.18,0.060844391469678245,35.741626884320596,2.8084643975303307,91.60522500000002,0.00783874174211005,2.55,14.049280162608634,1.201413033981582,0.8590000000000004,0.08530666955508708
0.03979211005113621,0.07675040123377432,0.18,0.06147039266613794,36.44413971171005,2.868631140943446,91.64840000000002,0.00782620306159358,2.6,14.051232932969612,1.2052567025430234,0.8680000000000004,0.08556642659016439
0.0405271316719812,0.07662510954493841,0.18,0.062095980824643904,37.1467510984961,2.9289899140721394,91.69202500000003,0.007813427646190285,2.65,14.053222538472168,1.209094222604712,0.8770000000000004,0.08582544170830345
0.041260441027541665,0.07649749995238184,0.18,0.06272115123665645,37.849462884334294,2.989540406589306,91.73610000000004,0.007800415882217896,2.7,14.055248895055767,1.212925478081959,0.8860000000000005,0.08608370556105457
0.041992007135606406,0.07636757631628502,0.18,0.06334589923080995,38.55227690463836,3.0502823023683443,91.78062500000004,0.0077871681631417515,2.75,14.057311917107144,1.216750353079578,0.8950000000000005,0.08634120884798738
0.0427217990876162,0.07623534256682805,0.18,0.06397022017332288,39.25519499050264,3.111215279492719,91.82560000000004,0.007773684889562948,2.8,14.059411517463925,1.2205687318953922,0.9040000000000005,0.08659794231721023
0.043449786049969616,0.07610080270407178,0.18,0.06459410946840237,39.95821896862469,3.1723390102656968,91.87102500000003,0.007759966469206249,2.85,14.061547607418305,1.2243804990237335,0.9130000000000005,0.0868538967658833
0.0441759372653258,0.07596396079783678,0.18,0.06521756255864314,40.66135066122817,3.2336531612202637,91.91690000000003,0.007746013316907792,2.9,14.063720096720804,1.2281855391589371,0.9220000000000005,0.08710906304072523
0.04490022205390391,0.0758248209875803,0.18,0.06584057492542078,41.364591885985796,3.295157393129208,91.96322500000002,0.007731825854602587,2.95,14.06592889358407,1.231983737198829,0.9310000000000005,0.08736343203851323
0.04562260981477937,0.07568338748227096,0.18,0.06646314208927938,42.067944455942566,3.356851361015384,92.01000000000002,0.007717404511311782,3.0,14.068173904686766,1.235774978248208,0.9400000000000005,0.08761699470657672
0.04634307002717676,0.07553966456026154,0.18,0.06708525961031338,42.77141017943917,3.4187347141621474,92.05722500000002,0.007702749723129733,3.05,14.070455035177504,1.2395591476223216,0.9490000000000005,0.08786974204328436
0.047061572251759255,0.07539365656915945,0.18,0.06770692308854377,43.47499086003558,3.4808070961239634,92.10490000000001,0.0076878619332108504,3.1,14.072772188678863,1.2433361308503346,0.9580000000000005,0.08812166509852434
0.04777808613191477,0.0752453679256953,0.18,0.06832812816428835,44.17868829643484,3.5430681447371914,92.15302500000001,0.007672741591756238,3.15,14.075125267291451,1.2471058136787925,0.9670000000000005,0.08837275497417817
0.04849258139503842,0.07509480311558925,0.18,0.06894887051852631,44.88250428240708,3.6055174921310384,92.20160000000001,0.007657389156000108,3.2,14.077514171598047,1.2508680820750773,0.9760000000000005,0.08862300282458756
0.04920502785381165,0.07494196669341531,0.18,0.06956914587325676,45.58644060671373,3.668154764738687,92.25062500000001,0.007641805090196002,3.25,14.079938800667799,1.2546228222308566,0.9850000000000005,0.0888723998570146
0.04991539540747756,0.0747868632824636,0.18,0.07018894999185155,46.29049905303194,3.7309795833085966,92.30010000000001,0.0076259898656027844,3.3,14.08239905206049,1.2583699205655274,0.9940000000000005,0.08912093733209515
0.05062365404311267,0.07462949757460048,0.18,0.070808278679402,46.99468139987922,3.793991562915976,92.35002500000002,0.00760994396047043,3.35,14.084894821830863,1.2621092637296507,1.0030000000000006,0.0893686065642853
0.05132977383689497,0.07446987433012663,0.18,0.07142712778305976,47.69898942053832,3.857190312974427,92.40040000000002,0.007593667860025604,3.4,14.087426004533018,1.2658407386083808,1.0120000000000005,0.08961539892230097
0.052033724955368225,0.07430799837763298,0.18,0.07204549319237169,48.40342488298227,3.9205754372477584,92.45122500000002,0.007577162056457019,3.45,14.089992493224862,1.269564232324887,1.0210000000000004,0.08986130582955057
0.05273547765670239,0.07414387461385478,0.18,0.0726633708396086,49.10798954979971,3.984146533861975,92.50250000000003,0.007560427048900602,3.5,14.09259417947263,1.2732796322437687,1.0300000000000002,0.09010631876456068
0.05343500229195023,0.07397750800352336,0.18,0.07328075670008805,49.81268517812042,4.0479031953174305,92.55422500000003,0.007543463343424432,3.55,14.095230953355466,1.2769868259744614,1.0390000000000001,0.09035042926139475
0.054132269306299954,0.073808903579216,0.18,0.0738976467924911,50.517513519541055,4.111845008501158,92.60640000000004,0.007526271453013483,3.6,14.097902703470064,1.2806857013746376,1.048,0.0905936289100647
0.05482724924032394,0.07363806644120367,0.18,0.07451403717917288,51.222476320051186,4.175971554699363,92.65902500000004,0.007508851897554137,3.65,14.10060931693538,1.2843761465535983,1.057,0.09083590935693549
0.05551991273122334,0.07346500175729678,0.18,0.07512992396646703,51.9275753199595,4.240282409610095,92.71210000000005,0.007491205203818525,3.7,14.103350679397396,1.2880580498756584,1.0659999999999998,0.0910772623051226
0.05621023051406872,0.07328971476268882,0.18,0.07574530330498422,52.63281225382028,4.304777143356074,92.76562500000004,0.007473331905448619,3.75,14.106126675033957,1.2917312999635233,1.0749999999999997,0.09131767951488234
0.05689817342303642,0.073112210759798,0.18,0.07636017138990418,53.338188850360126,4.369455320497704,92.81960000000004,0.007455232542940142,3.8,14.108937186559661,1.2953957857016578,1.0839999999999996,0.09155715280399501
0.0575837123926409,0.07293249511810689,0.18,0.07697452446126182,54.04370683240489,4.434316500046236,92.87402500000003,0.00743690766362627,3.85,14.111782095230813,1.2990513962396477,1.0929999999999995,0.0917956740481409
0.05826681845896266,0.0727505732739999,0.18,0.07758835880422713,54.74936791680692,4.499360235477116,92.92890000000003,0.0074183578216611085,3.9,14.114661280850445,1.302698020995553,1.1019999999999994,0.09203323518126909
0.05894746276087199,0.07256645073059902,0.18,0.0782016707493787,55.45517381437251,4.564586074743486,92.98422500000002,0.007399583578002995,3.95,14.117574621773393,1.306335549659253,1.1109999999999993,0.09226982819595898
0.05962561654124841,0.07238013305759707,0.18,0.07881445667297124,56.16112622978962,4.629993560289862,93.04000000000002,0.007380585500397554,4.0,14.120521994911437,1.309963872195783,1.1199999999999992,0.09250544514377458
0.06030125114819556,0.0721916258910895,0.18,0.07942671299719681,56.86722686155587,4.695582229065974,93.09622500000002,0.007361364163360596,4.05,14.1235032757385,1.3135828788486628,1.1289999999999991,0.0927400781356116
0.06097433803625184,0.0720009349334037,0.18,0.08003843619043975,57.57347740190673,4.761351612540771,93.15290000000002,0.0073419201481607615,4.1,14.12651833829591,1.3171924601432172,1.137999999999999,0.09297371934203713
0.0616448487675963,0.07180806595292662,0.18,0.08064962276752537,58.27987953674407,4.8273012367165995,93.21002500000002,0.007322254042802001,4.15,14.129567055197722,1.3207925068898874,1.146999999999999,0.09320636099362219
0.062312755013250315,0.07161302478393018,0.18,0.08126026928996251,58.986434945564916,4.893430622143535,93.26760000000002,0.00730236644200583,4.2,14.132649297636101,1.3243829101875337,1.1559999999999988,0.09343799538126675
0.06297802855427437,0.07141581732639489,0.18,0.08187037236617971,59.69314530139049,4.959739283933891,93.32562500000002,0.007282257947193389,4.25,14.135764935386764,1.3279635614267302,1.1649999999999987,0.09366861485651762
0.06364064128296028,0.0712164495458313,0.18,0.08247992865175519,60.40001227069551,5.0262267317768865,93.38410000000002,0.007261929166467299,4.3,14.138913836814478,1.33153435229305,1.1739999999999986,0.0938982118318789
0.06430056520401888,0.07101492747309958,0.18,0.08308893484964049,61.107037513337836,5.092892469953472,93.44302500000002,0.007241380714593312,4.35,14.142095868878625,1.3350951747703417,1.1829999999999985,0.09412677878111507
0.0649577724357626,0.07081125720422703,0.18,0.08369738771037796,61.81422268248827,5.15973599735133,93.50240000000002,0.007220613212981761,4.4,14.145310897138826,1.3386459211439967,1.1919999999999984,0.0943543082395468
0.06561223521128372,0.07060544490022379,0.18,0.0843052840323119,62.52156942456076,5.226756807480035,93.56222500000003,0.007199627289668825,4.45,14.148558785760613,1.3421864840042081,1.2009999999999983,0.0945807928043393
0.0662639258796273,0.07039749678689634,0.18,0.08491262066179339,63.2290793791428,5.2939543884863705,93.62250000000003,0.007178423579297559,4.5,14.151839397521178,1.3457167562492194,1.2099999999999982,0.09480622513478343
0.06691281690695958,0.07018741915465926,0.18,0.08551939449337898,63.93675417892621,5.361328223169815,93.68322500000004,0.00715700272309876,4.55,14.155152593815158,1.3492366310885642,1.218999999999998,0.09503059795256924
0.06755888087773115,0.0699752183583449,0.18,0.08612560247002297,64.6445954496381,5.428877788998188,93.74440000000004,0.007135365368871612,4.6,14.158498234660506,1.3527460020462971,1.227999999999998,0.09525390404205239
0.06820209049583535,0.06976090081701117,0.18,0.08673124158326367,65.35260480997223,5.496602558123451,93.80602500000005,0.007113512170964145,4.65,14.161876178704393,1.3562447629642145,1.2369999999999979,0.09547613625051297
0.06884241858576151,0.06954447301374735,0.18,0.08733630887340309,66.06078387152057,5.564501997397683,93.86810000000006,0.0070914437902534835,4.7,14.165286283229184,1.359732808005065,1.2459999999999978,0.09569728748840703
0.06947983809374307,0.069325941495478,0.18,0.08794080142968055,66.76913423870526,5.6325755683892025,93.93062500000005,0.007069160894125908,4.75,14.168728404158472,1.3632100316557525,1.2549999999999977,0.09591735072961083
0.07011432208890064,0.06910531287276485,0.18,0.08854471639044019,67.47765750871079,5.700822727398859,93.99360000000004,0.007046664156456713,4.8,14.17220239606316,1.3666763287305264,1.2639999999999976,0.09613631901165749
0.07074584376437983,0.06888259381960694,0.18,0.08914805094329202,68.18635527141656,5.769242925476476,94.05702500000004,0.007023954257589877,4.85,14.175708112167605,1.3701315943741645,1.2729999999999975,0.09635418543596662
0.07137437643848375,0.06865779107323863,0.18,0.08975080232526687,68.89522910932965,5.837835608437459,94.12090000000003,0.007001031884317522,4.9,14.179245404355823,1.373575724065145,1.2819999999999974,0.09657094316806625
0.07199989355580044,0.06843091143392588,0.18,0.09035296782296509,69.604280597518,5.906600216879558,94.18522500000003,0.0069778977298592,4.95,14.182814123177748,1.3770086136188069,1.2909999999999973,0.09678658543780755
0.07262236868832474,0.06820196176476045,0.18,0.09095454477269917,70.31351130354383,5.975536186199791,94.25000000000003,0.00695455249384096,5.0,14.186414117855538,1.3804301591905033,1.2999999999999972,0.09700110553957231
0.07324177553657492,0.0679709489914524,0.18,0.09155553056063002,71.02292278739748,6.044642946611522,94.31522500000003,0.006930996882274238,5.05,14.190045236289954,1.3838402572787414,1.308999999999997,0.09721449683247298
0.07385808793070375,0.06773788010212048,0.18,0.09215592262289728,71.73251660143139,6.113919923161698,94.38090000000003,0.0069072316075345554,5.1,14.193707325066782,1.387238804728314,1.317999999999997,0.09742675274054532
0.07447127983160426,0.06750276214708084,0.18,0.09275571844574329,72.44229429029464,6.183366535748242,94.44702500000002,0.006883257388340007,5.15,14.197400229463318,1.39062569873342,1.3269999999999968,0.09763786675293401
0.07508132533200985,0.06726560223863368,0.18,0.09335491556563111,73.1522573908676,6.2529821991375965,94.51360000000003,0.0068590749497295786,5.2,14.201123793454897,1.3940008368407741,1.3359999999999967,0.09784783242407066
0.0756881986575889,0.06702640755084815,0.18,0.09395351156935637,73.86240743219702,6.322766322982433,94.58062500000003,0.006834685023041259,5.25,14.204877859721497,1.3973641169527058,1.3449999999999966,0.09805664337384475
0.0762918741680337,0.06678518531934531,0.18,0.09455150409415296,74.57274593543141,6.3927183118395075,94.64810000000003,0.006810088345889965,5.3,14.208662269654377,1.4007154373302482,1.3539999999999965,0.09826429328776726
0.07689232635814365,0.06654194284107928,0.18,0.09514889082779282,75.28327441375684,6.4628375651876695,94.71602500000003,0.006785285662145281,5.35,14.21247686336278,1.4040546965962155,1.3629999999999964,0.0984707759171271
0.07748952985890309,0.06629668747411646,0.18,0.09574566950867955,75.99399437233292,6.533123477446031,94.78440000000003,0.006760277721909001,5.4,14.216321479680687,1.4073817937382695,1.3719999999999963,0.09867608507914027
0.07808345943855295,0.06604942663741302,0.18,0.09634183792593609,76.70490730822928,6.603575437992287,94.85322500000004,0.00673506528149249,5.45,14.220195956173631,1.4106966281119753,1.3809999999999962,0.09888021465709179
0.07867409000365684,0.06580016781059041,0.18,0.09693739391948637,77.41601471036226,6.674192831181183,94.92250000000004,0.006709649103393854,5.5,14.224100129145558,1.4139990994438458,1.3899999999999961,0.09908315860047062
0.07926139660016125,0.06554891853370912,0.18,0.097532335380131,78.12731805943204,6.744975036363138,94.99222500000005,0.006684029956274917,5.55,14.22803383364574,1.4172891078343755,1.398999999999996,0.09928491092509731
0.0798453544144498,0.06529568640704062,0.18,0.09812666024961708,78.83881882786008,6.815921427903024,95.06240000000005,0.006658208614938022,5.6,14.231996903475748,1.420566553761061,1.407999999999996,0.0994854657132445
0.08042593877439176,0.06504047909083745,0.18,0.09872036652070194,79.55051847972689,6.8870313751990855,95.13302500000006,0.006632185860302644,5.65,14.23598917119647,1.423831338081413,1.4169999999999958,0.0996848171137504
0.08100312515038427,0.06478330430510146,0.18,0.09931345223721132,80.26241847071019,6.95830424270202,95.20410000000005,0.006605962479381805,5.7,14.24001046813519,1.4270833620359549,1.4259999999999957,0.09988295934212532
0.08157688915638878,0.06452416982935029,0.18,0.09990591549409127,80.97452024802338,7.0297393899342,95.27562500000005,0.00657953926525832,5.75,14.244060624392707,1.43032252725121,1.4349999999999956,0.10007988668065078
0.08214720655096142,0.06426308350238207,0.18,0.10049775443745458,81.68682525035446,7.101336171509047,95.34760000000004,0.006552917017060853,5.8,14.248139468850527,1.4335487357426775,1.4439999999999955,0.1002755934784721
0.08271405323827706,0.0640000532220383,0.18,0.10108896726462133,82.39933490780517,7.173093937150559,95.42002500000004,0.006526096539939794,5.85,14.252246829178075,1.4367618899177965,1.4529999999999954,0.10047007415168362
0.08327740526914755,0.06373508694496491,0.18,0.10167955222415354,83.11205064183062,7.245012031712976,95.49290000000003,0.006499078645042939,5.9,14.25638253183999,1.4399618925788984,1.4619999999999953,0.1006633231834072
0.08383723884203331,0.06346819268637155,0.18,0.10226950761588434,83.8249738651792,7.317089795200602,95.56622500000003,0.006471864149491011,5.95,14.260546402103447,1.4431486469261467,1.4709999999999952,0.1008553351238638
0.08439353030404922,0.06319937851978921,0.18,0.10285883179094128,84.53810598183293,7.389326562787767,95.64000000000003,0.006444453876352978,6.0,14.26473826404555,1.4463220565604653,1.479999999999995,0.10104610459043795
0.08494625615196376,0.06292865257682592,0.18,0.10344752315176405,85.25144838694808,7.46172166483894,95.71422500000003,0.006416848654621209,6.05,14.268957940560751,1.4494820254864547,1.488999999999995,0.10123562626773577
0.08549539303319204,0.0626560230469208,0.18,0.10403558015211653,85.9650024667963,7.534274426928984,95.78890000000003,0.006389049319186434,6.1,14.27320525336835,1.452628458115296,1.497999999999995,0.10142389490763586
0.08604091774678253,0.06238149817709638,0.18,0.10462300129709345,86.67876959870601,7.606984169863558,95.86402500000003,0.0063610567108125455,6.15,14.27748002302001,1.4557612592676419,1.5069999999999948,0.10161090532933352
0.08658280724439725,0.06210508627170899,0.18,0.10520978514312121,87.39275115100419,7.679850209699661,95.93960000000003,0.006332871676111196,6.2,14.281782068907349,1.4588803341764967,1.5159999999999947,0.10179665241937838
0.08712103863128551,0.06182679569219772,0.18,0.10579593029795349,88.10694848295861,7.752871857766326,96.01562500000003,0.006304495067516242,6.25,14.286111209269569,1.461985588490082,1.5249999999999946,0.10198113113170516
0.0876555891672513,0.06154663485683138,0.18,0.10638143542066121,88.82136294472038,7.826048420685446,96.09210000000003,0.006275927743258001,6.3,14.290467261201133,1.465076928274692,1.5339999999999945,0.10216433648765785
0.08818643626761397,0.06126461224045386,0.18,0.10696629922161723,89.53599587726688,7.899379200392752,96.16902500000003,0.006247170567337326,6.35,14.294850040659496,1.4681542600175337,1.5429999999999944,0.10234626357600732
0.0887135575041625,0.0609807363742278,0.18,0.10755052046247542,90.2508486123452,7.972863494158929,96.24640000000004,0.006218224409499523,6.4,14.299259362472876,1.4712174906295563,1.5519999999999943,0.10252690755296234
0.08923693060610308,0.06069501584537652,0.18,0.10813409795614472,90.96592247241571,8.046500594610874,96.32422500000004,0.0061890901452080795,6.45,14.303695040348083,1.4742665274482678,1.5609999999999942,0.10270626364217414
0.08975653346099997,0.06040745929692423,0.18,0.10871703056675766,91.68121877059637,8.120289789753095,96.40250000000005,0.006159768655618222,6.5,14.308156886878388,1.4773012782405366,1.569999999999994,0.10288432713473436
0.09027234411570989,0.060118075427434574,0.18,0.10929931720963372,92.39673881060712,8.194230362989243,96.48122500000005,0.006130260827550305,6.55,14.312644713551437,1.4803216512053827,1.578999999999994,0.10306109338916673
0.09078434077730937,0.05982687299074756,0.18,0.10988095685123742,93.11248388671484,8.268321593143796,96.56040000000006,0.006100567553463028,6.6,14.317158330757223,1.4833275549767544,1.5879999999999939,0.10323655783141232
0.09129250181401563,0.059533860795714676,0.18,0.11046194850913145,93.82845528367866,8.342562754483872,96.64002500000007,0.006070689731426477,6.65,14.32169754779609,1.4863188986262919,1.5969999999999938,0.10341071595480844
0.09179680575610048,0.05923904770593249,0.18,0.11104229125192441,94.54465427669574,8.41695311674118,96.72010000000006,0.006040628265095,6.7,14.326262172886791,1.4892955916660775,1.6059999999999937,0.1035835633200612
0.09229723129679736,0.05894244263947448,0.18,0.11162198419921365,95.26108213134728,8.491491945134115,96.80062500000005,0.006010384063679912,6.75,14.330852013174596,1.4922575440513741,1.6149999999999936,0.103755095555212
0.09279375729320163,0.05864405456862128,0.18,0.112201026521523,95.97774010354513,8.566178500389983,96.88160000000005,0.005979958041922027,6.8,14.335466874739435,1.4952046661833478,1.6239999999999934,0.1039253083555977
0.09328636276716379,0.058343892519589304,0.18,0.1127794174402356,96.69462943947872,8.64101203876736,96.96302500000004,0.005949351120064035,6.85,14.340106562604095,1.4981368689117789,1.6329999999999933,0.10409419748380465
0.09377502690617587,0.058041965572257624,0.18,0.11335715622752177,97.41175137556237,8.715991812078599,97.04490000000004,0.005918564223822697,6.9,14.344770880742454,1.5010540635377583,1.6419999999999932,0.10426175876961677
0.09425972906425062,0.05773828285989338,0.18,0.11393424220626197,98.12910713838312,8.791117067712452,97.12722500000004,0.005887598284360877,6.95,14.349459632087763,1.5039561618163713,1.6509999999999931,0.1044279881099575
0.09474044876279406,0.057432853568875473,0.18,0.11451067474996497,98.84669794464884,8.866387048656845,97.21000000000004,0.005856454238259423,7.0,14.354172618540975,1.5068430759593658,1.659999999999993,0.10459288146882574
0.09521716569147036,0.057125686938416645,0.18,0.11508645328268116,99.56452500113684,8.941800993521776,97.29322500000004,0.005825133027488861,7.05,14.358909640979114,1.5097147186378097,1.668999999999993,0.104756434877226
0.09568985970906024,0.05681679226028407,0.18,0.11566157727891124,100.28258950464291,9.017358136562338,97.37690000000003,0.005793635599380948,7.1,14.363670499263687,1.5125710029847306,1.6779999999999928,0.10491864443309253
0.09615851084431175,0.05650617887851817,0.18,0.11623604626351013,101.00089264193073,9.0930577077019,97.46102500000003,0.005761962906600038,7.15,14.36845499224914,1.5154118425977448,1.6869999999999927,0.10507950630120774
0.09662309929678413,0.056193856189150106,0.18,0.11680985981158627,101.71943558968175,9.168898932555386,97.54560000000004,0.005730115907114317,7.2,14.373262917791354,1.5182371515416706,1.6959999999999926,0.10523901671311492
0.0970836054376844,0.05587983363991738,0.18,0.11738301754839643,102.43821951444544,9.244881032452705,97.63062500000004,0.005698095564166841,7.25,14.378094072756193,1.521046844351128,1.7049999999999925,0.10539717196702506
0.09754000981069663,0.05556412072997817,0.18,0.11795551914923579,103.15724557259004,9.321003224462311,97.71610000000004,0.005665902846246447,7.3,14.382948253028077,1.523840836033124,1.7139999999999924,0.1055539684277182
0.0979922931328039,0.05524672700962392,0.18,0.11852736433932369,103.87651491025372,9.39726472141488,97.80202500000004,0.005633538727058479,7.35,14.387825253518612,1.5266190420696228,1.7229999999999923,0.10570940252643919
0.09844043629510316,0.05492766207999049,0.18,0.11909855289368497,104.59602866329607,9.473664731927123,97.88840000000005,0.0056010041854953774,7.4,14.392724868175252,1.529381378420104,1.7319999999999922,0.10586347076078775
0.09888442036361245,0.05460693559276766,0.18,0.11966908463702682,105.3157879572502,9.550202460425728,97.97522500000005,0.005568300205607092,7.45,14.397646889990007,1.5321277615241036,1.740999999999992,0.10601616969460337
0.09932422658007091,0.054284557249907196,0.18,0.12023895944361139,106.03579390727515,9.626877107171426,98.06250000000006,0.005535427776571346,7.5,14.402591111008187,1.534858108303742,1.749999999999992,0.10616749595784444
0.09975983636273138,0.053960536803329386,0.18,0.12080817723712413,106.7560476181088,9.703687868283176,98.15022500000006,0.005502387892663752,7.55,14.40755732233719,1.5375723361662375,1.758999999999992,0.10631744624646233
0.10019123130714526,0.05363488405462806,0.18,0.12137673799053783,107.47655018402111,9.780633935762491,98.23840000000007,0.005469181553227764,7.6,14.412545314155327,1.5402703630064039,1.7679999999999918,0.10646601732227005
0.10061839318694038,0.05330760885477402,0.18,0.12194464172597264,108.197302688768,9.857714497517879,98.32702500000006,0.00543580976264447,7.65,14.417554875720684,1.5429521072091352,1.7769999999999917,0.10661320601280566
0.10104130395459084,0.0529787211038171,0.18,0.1225118885145518,108.91830620554552,9.934928737389404,98.41610000000006,0.005402273530302246,7.7,14.422585795380032,1.545617487651874,1.7859999999999916,0.10675900921119064
0.1014599457421796,0.05264823075058667,0.18,0.12307847847625354,109.63956179694446,10.012275835173376,98.50562500000005,0.005368573870566248,7.75,14.42763786057776,1.548266423707065,1.7949999999999915,0.10690342387598294
0.10187430086215345,0.05231614779239076,0.18,0.12364441177975875,110.36107051490553,10.089754966647169,98.59560000000005,0.005334711802747763,7.8,14.432710857864869,1.5508988352445943,1.8039999999999914,0.10704644703102524
0.10228435180807019,0.05198248227471349,0.18,0.12420968864229481,111.08283340067486,10.16736530359414,98.68602500000004,0.00530068835107339,7.85,14.437804572907977,1.553514642634214,1.8129999999999913,0.10718807576528808
0.10269008125533832,0.051647244290911345,0.18,0.12477430932947561,111.80485148476001,10.245106013828694,98.77690000000004,0.005266504544654093,7.9,14.44291879049838,1.5561137667479497,1.8219999999999912,0.10732830723270807
0.10309147206194909,0.05131044398190776,0.18,0.1253382741551376,112.5271257868865,10.322976261221456,98.86822500000004,0.0052321614174540895,7.95,14.448053294561147,1.5586961289624952,1.830999999999991,0.10746713865202134
0.10348850726920061,0.050972091535886416,0.18,0.12590158348117206,113.24965731595464,10.400975205724558,98.96000000000004,0.005197660008259611,8.0,14.453207868164244,1.5612616511615907,1.839999999999991,0.10760456730659214
0.10388117010241445,0.050632197187982994,0.18,0.12646423771735382,113.97244706999695,10.479102003397058,99.05222500000004,0.00516300136064749,8.05,14.458382293527704,1.563810255738385,1.8489999999999909,0.10774059054423665
0.10426944397164428,0.0502907712199756,0.18,0.12702623732116602,114.69549603613596,10.557355806430463,99.14490000000004,0.005128186522953623,8.1,14.463576352032824,1.566341865597784,1.8579999999999908,0.10787520577704235
0.10465331247237693,0.049947823959973714,0.18,0.12758758279762164,115.41880519054256,10.635735763174377,99.23802500000004,0.0050932165482412825,8.15,14.468789824231406,1.568856404158783,1.8669999999999907,0.10800841048118252
0.10503275938622535,0.049603365782105835,0.18,0.12814827469908097,116.14237549839471,10.714241018162268,99.33160000000004,0.0050580924942692845,8.2,14.474022489855026,1.5713537953567815,1.8759999999999906,0.10814020219672639
0.10540776868161379,0.04925740710620557,0.18,0.12870831362506613,116.86620791383669,10.792870712137335,99.42562500000004,0.005022815423460009,8.25,14.479274127824336,1.573833963645887,1.8849999999999905,0.1082705785274448
0.10577832451445542,0.04890995839749644,0.18,0.12926770022207165,117.59030337993876,10.871623982078512,99.52010000000004,0.004987386402867285,8.3,14.484544516258417,1.5762968340011971,1.8939999999999904,0.1083995371406114
0.10614441122882133,0.04856103016627545,0.18,0.12982643518337206,118.31466282865733,10.95049996122657,99.61502500000005,0.004951806504144137,8.35,14.48983343248414,1.578742331921072,1.9029999999999903,0.1085270757667996
0.10650601335760236,0.04821063296759494,0.18,0.13038451924882577,119.03928718079558,11.029497779110331,99.71040000000005,0.004916076803510378,8.4,14.495140653045581,1.5811703834293858,1.9119999999999902,0.10865319219967512
0.10686311562316234,0.04785877740094347,0.18,0.13094195320467608,119.76417734596455,11.10861656157301,99.80622500000005,0.004880198381720085,8.45,14.500465953713462,1.5835809150777655,1.92099999999999,0.10877788429578455
0.10721570293798362,0.04750547410992512,0.18,0.1314987378833485,120.48933422254476,11.187855430798649,99.90250000000006,0.004844172324028914,8.5,14.50580910949462,1.5859738539478128,1.92999999999999,0.10890114997433961
0.10756376040530469,0.04715073378193745,0.18,0.1320548741632454,121.21475869764816,11.267213505338677,99.99922500000007,0.004807999720161289,8.55,14.51116989464152,1.588349127653309,1.9389999999999898,0.1090229872169973
0.10790727331974924,0.04679456714784839,0.18,0.1326103629685371,121.94045164708074,11.346689900138571,100.09640000000006,0.004771681664277465,8.6,14.516548082661785,1.590706664342406,1.9479999999999897,0.10914339406763625
0.10824622716794781,0.04643698498167141,0.18,0.13316520526895007,122.66641393530547,11.426283726564625,100.19402500000005,0.004735219254940433,8.65,14.521943446327773,1.5930463926997984,1.9569999999999896,0.10926236863212897
0.1085806076291507,0.046077998100239805,0.18,0.13371940207955246,123.39264641540582,11.505994092430843,100.29210000000005,0.0046986135950827105,8.7,14.52735575768617,1.595368241948882,1.9659999999999895,0.10937990907811028
0.10891040057583315,0.045717617362879354,0.18,0.13427295446053597,124.11914992904967,11.585820102025911,100.39062500000004,0.004661865791972992,8.75,14.532784788067627,1.597672141853894,1.9749999999999894,0.10949601363474196
0.10923559207429225,0.04535585367107986,0.18,0.13482586351699558,124.84592530645378,11.66576085614031,100.48960000000004,0.0046249769571826615,8.8,14.538230308096418,1.599958022722038,1.9839999999999893,0.10961068059247361
0.10955616838523555,0.044992717968165466,0.18,0.1353781303987058,125.57297336634869,11.745815452093499,100.58902500000003,0.004587948206552196,8.85,14.543692087700133,1.602225815405592,1.9929999999999892,0.10972390830279993
0.10987211596436158,0.04462822123896342,0.18,0.13592975629989476,126.30029491594418,11.82598298376124,100.68890000000003,0.004550780660157397,8.9,14.549169896119395,1.6044754513040003,2.001999999999989,0.10983569517801434
0.11018342146293217,0.04426237450947205,0.18,0.13648074245901498,127.02789075089511,11.906262541602988,100.78922500000003,0.0045134754422755516,8.95,14.554663501917613,1.6067068623659484,2.010999999999989,0.10994603969095901
0.11049007172833628,0.043895188846527,0.18,0.13703109015851195,127.75576165526782,11.986653212689424,100.89000000000003,0.004476033681351406,9.0,14.56017267299076,1.608919981091422,2.019999999999989,0.11005494037477162
0.11079205380464581,0.04352667535746658,0.18,0.13758080072458975,128.48390840150702,12.067154080730054,100.99122500000003,0.004438456509963053,9.05,14.565697176577176,1.6111147405337485,2.028999999999989,0.11016239582262849
0.11108935493316296,0.043156845189795734,0.18,0.13812987552697434,129.21233175040314,12.147764226100938,101.09290000000003,0.004400745064787683,9.1,14.571236779267409,1.6132910743016218,2.0379999999999887,0.1102684046874845
0.1113819625529593,0.042785709530848814,0.18,0.13867831597867425,129.94103245106018,12.228482725872507,101.19502500000003,0.004362900486567195,9.15,14.576791247014066,1.6154489165611117,2.0469999999999886,0.11037296568180983
0.1116698643014064,0.0424132796074512,0.18,0.13922612353573882,130.67001124086408,12.309308653837475,101.29760000000003,0.0043249239200737095,9.2,14.582360345141714,1.6175882020376542,2.0559999999999885,0.11047607757732324
0.1119530480146982,0.04203956668557972,0.18,0.139773299697014,131.39926884545156,12.390241080538866,101.40062500000003,0.004286816514074943,9.25,14.587943838356784,1.6197088660180268,2.0649999999999884,0.1105777392047225
0.11223150172836496,0.041664582070021716,0.18,0.14031984600389594,132.1288059786794,12.471279073298124,101.50410000000004,0.004248579421299454,9.3,14.593541490757518,1.6218108443523058,2.0739999999999883,0.11067794945341163
0.1125052136777787,0.04128833710403325,0.18,0.14086576404008216,132.85862334259443,12.552421696243327,101.60802500000004,0.004210213798401792,9.35,14.599153065843936,1.623894073455807,2.082999999999988,0.11077670727122509
0.11277417229865028,0.04091084316899583,0.18,0.14141105543132057,133.58872162740371,12.633668010337498,101.71240000000004,0.004171720805927497,9.4,14.604778326527825,1.6259584903110087,2.091999999999988,0.1108740116641492
0.11303836622751792,0.04053211168407219,0.18,0.14195572184515626,134.31910151144547,12.71501707340701,101.81722500000005,0.0041331016082780106,9.45,14.610417035142758,1.6280040324694585,2.100999999999988,0.1109698616960405
0.1132977843022275,0.04015215410586092,0.18,0.14249976499067613,135.0497636611604,12.796467940170087,101.92250000000006,0.004094357373675452,9.5,14.616068953454134,1.630030638053662,2.109999999999988,0.11106425648834153
0.11355241556240393,0.039770981928049724,-0.22,0.14304318661825155,135.7807087310635,12.878019662265404,102.02822500000006,0.004055489274127269,9.55,14.621733842669245,1.632038245758955,2.118999999999988,0.11115719521979367
0.11380224924991432,0.039388606681067945,-0.22,0.1422547126749587,136.5119373637164,12.959671288280761,102.13390000000005,0.004016498485390803,9.6,14.627411463447366,1.6340267948553575,2.1079999999999877,0.1112486771261474
0.11404727480932257,0.03900503993173767,-0.22,0.14146659005073095,137.24345018970035,13.041421863781881,102.23902500000005,0.003977386186937715,9.65,14.633101575909862,1.635996225189411,2.0969999999999875,0.1113387014998701
0.11428748188833521,0.03862029328292378,-0.22,0.14067882342818536,137.97524782758936,13.123270431341266,102.34360000000005,0.003938153561918298,9.7,14.638803939650328,1.6379464771859977,2.0859999999999874,0.11142726768985106
0.11452286033823891,0.0382343783731831,-0.22,0.13989141743237346,138.70733088392424,13.20521603056717,102.44762500000004,0.0038988017971256996,9.75,14.644518313744745,1.639877491850144,2.0749999999999873,0.1115143751011042
0.11475340021432917,0.03784730687641218,-0.22,0.13910437663064792,139.4396999531869,13.287257698132644,102.55110000000005,0.003859332082960005,9.8,14.650244456761657,1.641789210768803,2.063999999999987,0.11160002319446832
0.11497909177633052,0.0374590905014943,-0.22,0.13831770553253597,140.17235561777525,13.36939446780468,102.65402500000005,0.003819745613392235,9.85,14.655982126772374,1.6436815761126236,2.052999999999987,0.11168421148630511
0.11519992548880803,0.03706974099194521,-0.22,0.1375314085896195,140.9052984479786,13.451625370473439,102.75640000000004,0.0037800435859282216,9.9,14.661731081361191,1.6455545306376982,2.041999999999987,0.11176693954819472
0.1154158920215702,0.036679270125557856,-0.22,0.13674549019542168,141.63852900195351,13.533949434181563,102.85822500000003,0.0037402272015723717,9.95,14.667491077635631,1.6474080176872954,2.030999999999987,0.11184820700662929
0.11562698225006315,0.03628768971404619,-0.22,0.1359599546852998,142.37204782570032,13.616365684153585,102.95950000000003,0.0037002976647913417,10.0,14.67326187223671,1.6492419811935732,2.0199999999999867,0.1119280135427042
0.11583318725575614,0.03589501160268779,-0.22,0.1351748063363451,143.10585545303996,13.698873142825407,103.06022500000003,0.0036602561834775888,10.05,14.679043221349213,1.6510563656792756,2.0089999999999866,0.11200635889180732
0.11603449832651833,0.03550124766996559,-0.22,0.13439004936728857,143.8399524055915,13.781470829873873,103.16040000000002,0.0036201039689128267,10.1,14.684834880712001,1.65285111625941,1.9979999999999867,0.11208324284330629
0.11623090695698693,0.03510640982720854,-0.22,0.13360568793841346,144.57433919275,13.864157762246432,103.26002500000003,0.00357984223573138,10.15,14.690636605628328,1.6546261786429082,1.9869999999999868,0.11215866524023371
0.11642240484892653,0.03471051001823126,-0.22,0.13282172615147386,145.3090163116651,13.94693295419086,103.35910000000003,0.003539472201883422,10.2,14.696448150976178,1.6563814991342687,1.9759999999999869,0.1122326259789706
0.11660898391157967,0.03431356021897278,-0.22,0.13203816804961982,146.04398424721998,14.029795417285095,103.45762500000002,0.003498995088598136,10.25,14.702269271218624,1.6581170246351802,1.964999999999987,0.11230512500892784
0.11679063626200874,0.03391557243713425,-0.22,0.13125501761732855,146.77924347201082,14.112744160467129,103.55560000000001,0.0034584121203467518,10.3,14.708099720414204,1.6598327026461288,1.953999999999987,0.1123761623322261
0.1169673542254289,0.03351655871181574,-0.22,0.130472278780342,147.51479444632685,14.195778190064981,103.65302500000001,0.003417724524805501,10.35,14.713939252227304,1.6615284812679856,1.9429999999999872,0.11244573800337382
0.11713913033553254,0.033116531113152,-0.22,0.12968995540561035,148.250637618131,14.27889650982677,103.74990000000001,0.0033769335328184633,10.4,14.719787619938575,1.6632043092035764,1.9319999999999873,0.11251385212894376
0.11730595733480452,0.03271550174194739,-0.22,0.12890805130124192,148.98677342304086,14.362098120950842,103.846225,0.003336040378360324,10.45,14.725644576455352,1.664860135759234,1.9209999999999874,0.11258050486724776
0.11746782817482894,0.03231348272930984,-0.22,0.12812657021645893,149.7232022843103,14.44538202211598,103.94200000000001,0.003295046298499032,10.5,14.731509874322093,1.6664959108463315,1.9099999999999875,0.11264569642801023
0.11762473601658693,0.03191048623628377,-0.22,0.12734551584155934,150.45992461281165,14.528747209511709,104.037225,0.0032539525333583584,10.55,14.737383265730834,1.668111584982797,1.8989999999999876,0.11270942707203994
0.11777667423074548,0.03150652445348239,-0.22,0.12656489180788474,151.19694080701822,14.612192676868643,104.1319,0.0032127603260803756,10.6,14.743264502531664,1.6697071092946112,1.8879999999999877,0.11277169711090065
0.11792363639793763,0.031101609600718852,-0.22,0.12578470168779396,151.9342512529876,14.695717415488941,104.22602499999999,0.003171470922787838,10.65,14.749153336243202,1.6712824355172853,1.8769999999999878,0.11283250690658019
0.11806561630903371,0.030695753926636527,-0.22,0.12500494899464298,152.67185632434524,14.779320414276807,104.3196,0.003130085572546454,10.7,14.7550495180631,1.6728375159973212,1.865999999999988,0.11289185687115837
0.11820260796540359,0.030288969708338633,-0.22,0.12422563718277006,153.4097563822688,14.863000659769082,104.41262499999999,0.0030886055273271064,10.75,14.76095279887855,1.674372303693653,1.854999999999988,0.11294974746647374
0.11833460557917015,0.029881269251016748,-0.22,0.12344676964748712,154.14795177547268,14.9467571361659,104.50509999999998,0.0030470320419679455,10.8,14.76686292927682,1.6758867521790701,1.843999999999988,0.11300617920378904
0.11846160357345387,0.029472664887578617,-0.22,0.12266834972507674,154.8864428401935,15.030588825361416,104.59702499999999,0.003005366374136419,10.85,14.772779659555779,1.677380815641621,1.8329999999999882,0.11306115264345566
0.11858359658260834,0.0290631689782751,-0.22,0.12189038069279466,155.62522990017575,15.114494706974607,104.68839999999999,0.0029636097842912082,10.9,14.77870273973445,1.678854448886,1.8219999999999883,0.11311466839457705
0.11870057945244712,0.02865279391032619,-0.22,0.12111286576887813,156.3643132666582,15.19847375838013,104.77922499999998,0.00292176353564407,10.95,14.784631919563582,1.6803076073349137,1.8109999999999884,0.11316672711467109
0.11881254724046134,0.028241552097546432,-0.22,0.12033580811255969,157.10369323836068,15.282524954739264,104.86949999999997,0.0028798288941216175,11.0,14.790566948536204,1.68174024703043,1.7999999999999885,0.11321732950933158
0.1189194952160286,0.027829455979969265,-0.22,0.11955921082408644,157.84337010147155,15.366647269030906,104.95922499999998,0.002837807128326989,11.05,14.796507575898227,1.6831523246353073,1.7889999999999886,0.11326647633188894
0.11902141886061285,0.027416518023470848,-0.22,0.11878307694474492,158.58334412963546,15.450839672082648,105.04839999999997,0.002795699509501464,11.1,14.802453550659028,1.6845437974343058,1.7779999999999887,0.11331416838306982
0.11911831386795528,0.02700275071939287,-0.22,0.11800740945689123,159.323615583942,15.535101132601891,105.13702499999997,0.002753507311485976,11.15,14.808404621602058,1.6859146233354794,1.7669999999999888,0.11336040651065632
0.11921017614425622,0.026588166584164727,-0.22,0.11723221128398661,160.06418471291443,15.619430617207065,105.22509999999997,0.0027112318106825555,11.2,14.814360537295457,1.687264760871449,1.755999999999989,0.11340519160914422
0.1192970018083482,0.026172778158924916,-0.22,0.11645748529063836,160.8050517524994,15.703827090458867,105.31262499999997,0.0026688742860157,11.25,14.82032104610267,1.6885941692006572,1.744999999999989,0.11344852461940078
0.11937878719185978,0.025756598009141585,-0.22,0.11568323428264586,161.5462169260568,15.788289514891598,105.39959999999996,0.00262643601889365,11.3,14.826285896193088,1.6899028081086034,1.733999999999989,0.11349040652832171
0.1194555288393707,0.025339638724232554,-0.22,0.11490946100705184,162.28768044435043,15.87281685104454,105.48602499999996,0.002583918293169613,11.35,14.832254835552682,1.6911906380090604,1.7229999999999892,0.11353083836848779
0.11952722350855777,0.02492191291718441,-0.22,0.1141361681521989,163.0294425055391,15.957408057493398,105.57189999999996,0.0025413223951028935,11.4,14.83822761199465,1.692457619945272,1.7119999999999893,0.11356982121782103
0.11959386817033185,0.024503433224170923,-0.22,0.113363358347791,163.7715032951682,16.042062090881807,105.65722499999995,0.0024986496133199516,11.45,14.844203973170078,1.6937037155911314,1.7009999999999894,0.1136073561992401
0.11965546000896596,0.02408421230417094,-0.22,0.1125910341649599,164.51386298616194,16.126777905952892,105.74199999999995,0.002455901238775408,11.5,14.850183666578594,1.69492888725234,1.6899999999999895,0.11364344448031581
0.11971199642221401,0.023664262838585266,-0.22,0.11181919811633678,165.25652173881588,16.21155445558089,105.82622499999995,0.002413078564712944,11.55,14.856166439579043,1.6961330978675486,1.6789999999999896,0.1136780872729259
0.11976347502142098,0.02324359753085326,-0.22,0.11104785265612865,165.99947970079035,16.296390690802816,105.90989999999995,0.0023701828866261724,11.6,14.862152039400154,1.697316311009478,1.6679999999999897,0.11371128583290976
0.11980989363162373,0.022822229106068407,-0.22,0.11027700018019956,166.74273700710413,16.381285560850202,105.99302499999995,0.002327215502219406,11.65,14.868140213151225,1.6984784908860207,1.6569999999999898,0.11374304145972283
0.11985125029164286,0.022400170310593392,-0.22,0.10950664302615672,167.48629378012873,16.466238013180888,106.07559999999994,0.0022841777113683684,11.7,14.874130707832807,1.6996196023413241,1.64599999999999,0.11377335549609086
0.11988754325416563,0.02197743391167463,-0.22,0.10873678347344133,168.23015012958325,16.551246993510844,106.15762499999994,0.002241070816080855,11.75,14.880123270347388,1.7007396108568538,1.63499999999999,0.11380222932766403
0.11991877098581978,0.02155403269705591,-0.22,0.10796742374342412,168.9743061525297,16.636311445846076,106.23909999999994,0.0021978961204572995,11.8,14.886117647510096,1.7018384825524375,1.6239999999999901,0.11382966438267098
0.11994493216723831,0.021129979474591706,-0.22,0.10719856599950545,169.71876193336894,16.721430312514567,106.32002499999993,0.002154654930651305,11.85,14.892113586059386,1.7029161841872904,1.6129999999999902,0.11385566213157287
0.11996602569311517,0.020705287071859688,-0.22,0.10643021234722005,170.4635175438371,16.806602534198277,106.40039999999993,0.0021113485548300954,11.9,14.898110832667747,1.70397268316102,1.6019999999999903,0.11388022408671736
0.11998205067225204,0.020279968335772596,-0.22,0.10566236483434625,171.20857304300262,16.891827049965165,106.48022499999993,0.002067978303134901,11.95,14.904109133952403,1.705007947514613,1.5909999999999904,0.11390335180199276
0.11999300642759596,0.01985403613218983,-0.22,0.10489502545101972,171.9539284772636,16.977102797301317,106.55949999999993,0.002024545487641313,12.0,14.910108236486016,1.7060219459314017,1.5799999999999905,0.11392504687248224
0.11999889249626784,0.019427503345528025,-0.22,0.10412819612985155,172.69958388034593,17.06242871214305,106.63822499999992,0.0019810514223195332,12.05,14.916107886807396,1.7070146477380113,1.5689999999999906,0.11394531093411818
0.11999970862958222,0.019000382878371462,-0.22,0.1033618787460507,173.44553927330193,17.147803728909132,106.71639999999992,0.0019374974229946086,12.1,14.922107831432209,1.7079860229052877,1.5579999999999907,0.11396414566333679
0.11999545479305754,0.01857268765108172,-0.22,0.1025960751175507,174.19179466450933,17.233226780532995,106.79402499999992,0.001893884807306587,12.15,14.928107816863688,1.7089360420492063,1.5469999999999908,0.11398155277673291
0.11998613116641778,0.01814443060140678,-0.22,0.10183078700514078,174.93835004967102,17.31869679849502,106.87109999999991,0.0018502148946706156,12.2,14.934107589603341,1.7098646764317604,1.535999999999991,0.1139975340307152
0.11997173814358476,0.017715624684089774,-0.22,0.10106601611260083,175.68520541181516,17.404212712854857,106.94762499999992,0.0018064890062370036,12.25,14.940106896161662,1.7107718979618307,1.524999999999991,0.11401209122116154
0.11995227633266159,0.017286282870476958,-0.22,0.10030176408684076,176.43236072129594,17.489773452283806,107.02359999999992,0.0017627084648512055,12.3,14.946105483068841,1.7116576791960352,1.5139999999999911,0.114025226183075
0.11992774655590686,0.016856418148125465,-0.22,0.09953803251804387,177.17981593579478,17.575377944097195,107.09902499999991,0.0017188745950137785,12.35,14.952103096885475,1.712521993339559,1.5029999999999912,0.11403694079024002
0.1198981498497,0.01642604352041041,-0.22,0.09877482293981413,177.92757100032225,17.661025114286858,107.1738999999999,0.001674988722840277,12.4,14.958099484213271,1.7133648142469653,1.4919999999999913,0.11404723695487921
0.11986348746449743,0.015995172006131424,-0.22,0.09801213682932747,178.6756258472202,17.746713887553607,107.2482249999999,0.0016310521760210868,12.45,14.964094391705757,1.714186116422986,1.4809999999999914,0.11405611662731069
0.11982376086477979,0.015563816639118976,-0.22,0.09724997560748698,179.42398039616484,17.832443187339763,107.3219999999999,0.0015870662837812362,12.5,14.970087566078982,1.7149858750232925,1.4699999999999915,0.1140635817956058
0.11977897172898999,0.01513199046784,-0.22,0.0964883406390819,180.17263455416986,17.918211935861727,107.3952249999999,0.001543032376840137,12.55,14.976078754122222,1.7157640658552484,1.4589999999999916,0.11406963448524766
0.11972912194946235,0.014699706555003262,-0.22,0.0957272332329504,180.92158821559062,18.004019054142574,107.4678999999999,0.0014989517873712972,12.6,14.98206770270867,1.7165206653786405,1.4479999999999917,0.11407427675879014
0.11967421363234267,0.014266977977164183,-0.22,0.0949666546421461,181.6708412621285,18.0898634620447,107.5400249999999,0.0014548258489619804,12.65,14.988054158806143,1.7172556507063905,1.4369999999999918,0.11407751071551762
0.11961424909749914,0.013833817824329209,-0.22,0.09420660606410822,182.42039356283584,18.17574407830249,107.6115999999999,0.001410655896572815,12.7,14.99403786948776,1.7179689996052487,1.425999999999992,0.11407933849110548
0.11954923087842446,0.013400239199559946,-0.22,0.09344708864083542,183.1702449741216,18.261659820555032,107.68262499999989,0.0013664432664973805,12.75,15.000018581942635,1.7186606904964652,1.414999999999992,0.1140797622572813
0.11947916172212873,0.012966255218576734,-0.22,0.09268810345906299,183.92039533975733,18.347609605378857,107.75309999999989,0.0013221892963217379,12.8,15.005996043486556,1.7193307024564433,1.4039999999999921,0.11407878422148683
0.11940404458902336,0.012531879009361905,-0.22,0.09192965155044384,184.67084449088384,18.4335923483207,107.82302499999989,0.0012778953248839232,12.85,15.011970001572662,1.7199790152173722,1.3929999999999922,0.11407640662654091
0.11932388265279605,0.012097123711762678,-0.22,0.09117173389173265,185.4215922460182,18.51960696393033,107.89239999999988,0.0012335626922334087,12.9,15.017940203802112,1.7206056091678403,1.3819999999999923,0.11407263175030305
0.11923867930027666,0.011662002477093621,-0.22,0.09041435140497353,186.17263841106163,18.60565236579336,107.96122499999989,0.001189192739590515,12.95,15.023906397934752,1.7212104653534284,1.3709999999999924,0.11406746190533816
0.11914843813129422,0.011226528467738939,-0.22,0.08965750495769104,186.9239827793075,18.69172746656413,108.02949999999989,0.001144786809305808,13.0,15.029868331899765,1.7217935654772831,1.3599999999999925,0.11406089943858208
0.11905316295852464,0.01079071485675417,-0.22,0.0889011953630844,187.67562513145015,18.777831177998582,108.09722499999988,0.001100346244819433,13.05,15.03582575380633,1.7223548919006701,1.3489999999999926,0.11405294673100803
0.11895285780732981,0.010354574827467829,-0.22,0.08814542338022491,188.42756523559416,18.863962410987185,108.16439999999987,0.0010558723906204455,13.1,15.041778411954256,1.7228944276435079,1.3379999999999928,0.11404360619729424
0.11884752691558746,0.009918121573082549,-0.22,0.08739018971425667,189.17980284726414,18.950120075587897,108.23102499999987,0.0010113665922060874,13.15,15.047726054844622,1.7234121563848812,1.3269999999999929,0.1140328802854925
0.1187371747335121,0.00948136829627599,-0.22,0.08663549501660027,189.932337709415,19.036303081059106,108.29709999999987,0.0009668301960410415,13.2,15.0536684311904,1.7239080624635352,1.315999999999993,0.1140207714766978
0.11862180592346698,0.00904432820880149,-0.22,0.08588133988515953,190.68516955244294,19.122510335892652,108.36262499999987,0.0009222645495166584,13.25,15.059605289927076,1.7243821308783491,1.304999999999993,0.11400728228471915
0.1185014253597672,0.008607014531088333,-0.22,0.0851277248645313,191.4382980941967,19.208740747846832,108.42759999999987,0.0008776710009101444,13.3,15.065536380223248,1.7248343472887893,1.2939999999999932,0.11399241525575148
0.11837603812847362,0.008169440491841937,-0.22,0.0843746504462183,192.1917230399896,19.294993223979436,108.49202499999987,0.0008330508993437405,13.35,15.071461451491237,1.7252646980153437,1.2829999999999933,0.11397617296804873
0.11824564952717816,0.007731619327643644,-0.22,0.08362211706884454,192.94544408261183,19.381266670680816,108.55589999999987,0.0007884055947438608,13.4,15.07738025339766,1.7256731700399357,1.2719999999999934,0.11395855803159816
